name,stage,lat,lon
Contact: Commercial Tavern,Contact,51.5216499,-0.0756797
Engaged: (BAL-017) REEF - 5636 The Alameda,Engaged,39.358117,-76.5961086
Engaged: Accor - H3142 - MANCHESTER CENTRE PORTLAND STREET,Engaged,53.4773365,-2.2407418
"Engaged: Oya Kitchens - Golden Glacier Wembley, 66",Engaged,51.5391358,-0.2928763
"Engaged: Oya Kitchens - The Alma Angel, 458",Engaged,51.5333053,-0.1096963
Enrolled: (MIA-900) 3000 NE 151st St,Enrolled,25.9117561,-80.1399802
Matched: (DXB-051) Kitchen 1A - Safeer Business Bay,Matched,25.180354,55.2761306
Activated: (LDN-146) REEF - Tottenham,Activated,51.6099587,-0.0741652
"Activated: (OTT-006) 298 Preston Street, Ottawa",Activated,45.4035776,-75.711455
"Activated: (DXB-041) ZAR AR KAHL RESTAURANT, BARSHA 1",Activated,25.1104205,55.1970405
Lead: Accor - H0975 - LONDON GREENWICH,Lead,51.479672,-0.008551
Lead: Accor - H9289 - EDINBURGH ROYAL MILE,Lead,55.9511894,-3.1821033
Lead: Accor - H5058 - BERLIN CITY POTSDAMER PLATZ,Lead,52.5047899,13.3846093
Lead: Gravity - Gravity Newcastle,Lead,,
Lead: Workspace - Workspace Shoreditch,Lead,51.5234828,-0.0818895
"Lead: (ATL-061) 3039 Amwiler Rd NW, Atlanta, GA, USA",Lead,33.9291405,-84.2625378
"Lead: (AUS-015) Amy Donovan Plaza, Austin, TX 78758, USA",Lead,30.3983298,-97.7278509
"Lead: (AUS-999) 10203 Menchaca Rd, Austin, TX 78748, USA",Lead,30.172677,-97.830144
"Lead: (BAL-023) 6605 York Rd, Baltimore, MD 21212, USA",Lead,39.3764408,-76.6090582
"Lead: (BOS-007) 114 Spring St, Everett, MA 02149, USA",Lead,42.4012789,-71.0519769
"Lead: (CGY-015) 1040 11 Avenue Southwest, Calgary, AB T2R 0G3, Canada",Lead,51.0431805,-114.0855276
"Lead: (CHI-023) 2407 North Elston Avenue, Chicago, IL 60647, USA",Lead,41.9264223,-87.6756929
"Lead: (DAL-002) 10370 N Central Expy, Dallas, TX 75231, USA",Lead,32.8870753,-96.7687732
"Lead: (DAL-031) 1855 North Central Expressway, Plano, TX 75075, USA",Lead,33.025493,-96.7110667
"Lead: (DAL-053) 1421 North Riverfront Boulevard, Dallas, TX, USA",Lead,32.7904238,-96.8213004
"Lead: (DEN-008) 400 West 48th Avenue, Denver, CO, USA",Lead,39.7827996,-104.9920643
"Lead: (DET-009) 4145 Woodward Ave, Detroit, MI 48201, USA",Lead,42.3511929,-83.0608454
"Lead: (DET-037) 300 W 14 Mile Rd, Troy, MI 48083, USA",Lead,42.5370562,-83.109352
"Lead: (HOU-014) 1060 N San Jacinto St, Houston, TX 77002, USA",Lead,29.7673916,-95.3559543
"Lead: (HOU-039) 1319 Texas St, Houston, TX 77002, USA",Lead,29.7583218,-95.3591948
Lead: (Kimco) KIMCO - 2200 Westlake Retail,Lead,47.6183042,-122.337892
Lead: (Kimco) KIMCO - Auburn North,Lead,47.3194497,-122.223244
Lead: (Kimco) KIMCO - Bedford Marketplace,Lead,42.4911866,-71.2735933
Lead: (Kimco) KIMCO - Bel Air Village S.C.,Lead,38.4510318,-121.3706271
Lead: (Kimco) KIMCO - Bell Camino Center,Lead,33.639423,-112.2911
Lead: (Kimco) KIMCO - Bellaire Blvd S.C.,Lead,29.703568,-95.5925936
Lead: (Kimco) KIMCO - Bellevue Place,Lead,,
Lead: (Kimco) KIMCO - Bellmore S.C.,Lead,40.6612411,-73.5365073
Lead: (Kimco) KIMCO - Belmart Plaza,Lead,26.6897131,-80.0574937
Lead: (Kimco) KIMCO - Birchwood Plaza,Lead,40.8432134,-73.2873358
Lead: (Kimco) KIMCO - Black Mountain Village,Lead,32.9178356,-117.1268847
Lead: (Kimco) KIMCO - Blalock Market,Lead,29.785377,-95.522326
Lead: (Kimco) KIMCO - Boca Lyons Plaza,Lead,26.3663973,-80.1875937
Lead: (Kimco) KIMCO - Boynton West S.C.,Lead,26.5300319,-80.1238637
Lead: (Kimco) KIMCO - Brace Road Station,Lead,,
Lead: (Kimco) KIMCO - Braelinn Village,Lead,33.3780793,-84.5602312
Lead: (Kimco) KIMCO - Brandywine Commons II,Lead,39.8244661,-75.547706
Lead: (Kimco) KIMCO - Branhaven Plaza,Lead,41.2729887,-72.8310036
Lead: (Kimco) KIMCO - Brennan Station,Lead,35.8985703,-78.6826355
Lead: (Kimco) KIMCO - Bridgehampton Commons,Lead,40.9337641,-72.3164533
Lead: (Kimco) KIMCO - Bridgewater Falls,Lead,39.3881764,-84.5022239
Lead: (Kimco) KIMCO - Bridgewater Promenade,Lead,40.5626009,-74.5575035
Lead: (Kimco) KIMCO - Broadway Marketplace,Lead,33.4061513,-111.9255139
Lead: (Kimco) KIMCO - Broadway Plaza,Lead,42.42534,-71.0442282
Lead: (Kimco) KIMCO - Brookhurst Center,Lead,33.8189747,-117.9601967
Lead: (Kimco) KIMCO - Brookline Village,Lead,42.3317642,-71.1211635
Lead: (Kimco) KIMCO - Brookvale S.C.,Lead,37.5677573,-122.0237096
Lead: (Kimco) KIMCO - Brownsville Commons,Lead,33.8466379,-84.7000488
Lead: (Kimco) KIMCO - Burke Town Plaza,Lead,38.7780087,-77.2744541
Lead: (Kimco) KIMCO - Buttermilk Towne Center,Lead,,
Lead: (Kimco) KIMCO - Cambrian Park Plaza,Lead,37.2603482,-121.9286663
Lead: (Kimco) KIMCO - Camelback Miller Plaza,Lead,33.4991206,-111.9184342
Lead: (Kimco) KIMCO - Camelback Village Square,Lead,33.5102789,-112.0844732
Lead: (Kimco) KIMCO - Camino Square,Lead,26.3417292,-80.0899176
Lead: (Kimco) KIMCO - Camp Creek Marketplace II,Lead,33.6562958,-84.5081942
Lead: (Kimco) KIMCO - Canyon Pointe S.C.,Lead,36.1604788,-115.3345058
Lead: (Kimco) KIMCO - Canyon Ridge Plaza,Lead,47.3672475,-122.2034349
Lead: (Kimco) KIMCO - Capital Square,Lead,35.823371,-78.5905691
Lead: (Kimco) KIMCO - Carmans Plaza,Lead,40.7006383,-73.4326822
Lead: (Kimco) KIMCO - Carmel Mountain Plaza,Lead,32.9797098,-117.0817682
Lead: (Kimco) KIMCO - Carrollwood Commons,Lead,28.0868564,-82.5062137
Lead: (Kimco) KIMCO - Castor Place,Lead,40.0508796,-75.0648563
Lead: (Kimco) KIMCO - Centennial Shops,Lead,,
Lead: (Kimco) KIMCO - Center at Baybrook,Lead,29.5385377,-95.1360834
Lead: (Kimco) KIMCO - Center at Missouri Avenue,Lead,27.9265671,-82.7882089
Lead: (Kimco) KIMCO - Center of the Hills,Lead,30.2354782,-97.8749223
Lead: (Kimco) KIMCO - Center Square S.C.,Lead,40.1672916,-75.2871993
Lead: (Kimco) KIMCO - Centerwood Plaza,Lead,33.8881091,-118.1414346
Lead: (Kimco) KIMCO - Central Center-Shoprite,Lead,,
Lead: (Kimco) KIMCO - Central Plaza,Lead,,
Lead: (Kimco) KIMCO - Centre Court,Lead,,
Lead: (Kimco) KIMCO - Centro Arlington,Lead,38.8590844,-77.1024159
Lead: (Kimco) KIMCO - Centrum @ Crossroads,Lead,35.7545886,-78.7454732
Lead: (Kimco) KIMCO - Century South S.C.,Lead,30.1901943,-97.7735908
Lead: (Kimco) KIMCO - Charleston Commons,Lead,36.1594135,-115.0640446
Lead: (Kimco) KIMCO - Chico Crossroads,Lead,39.7233056,-121.8091195
Lead: (Kimco) KIMCO - Chino Hills Marketplace,Lead,33.9842953,-117.7134852
Lead: (Kimco) KIMCO - Christown Spectrum,Lead,33.5223035,-112.0929768
Lead: (Kimco) KIMCO - City Heights Center,Lead,32.748695,-117.0998852
Lead: (Kimco) KIMCO - Cityplace Market,Lead,32.8032286,-96.7904779
Lead: (Kimco) KIMCO - Clackamas Promenade,Lead,45.4315206,-122.57207
Lead: (Kimco) KIMCO - Clackamas Square,Lead,45.4424056,-122.5777318
Lead: (Kimco) KIMCO - Clermont Landing,Lead,28.5379201,-81.7355856
Lead: (Kimco) KIMCO - Clinton Pointe,Lead,42.5458125,-82.9030625
Lead: (Kimco) KIMCO - Clive Plaza,Lead,41.6017809,-93.7592219
Lead: (Kimco) KIMCO - Cloverdale Plaza,Lead,36.091031,-80.275314
Lead: (Kimco) KIMCO - College Park S.C. - N Las Vegas,Lead,36.195031,-115.1172888
Lead: (Kimco) KIMCO - College Park S.C. - Tempe,Lead,33.3795607,-111.9292041
Lead: (Kimco) KIMCO - Colonial Plaza,Lead,28.5491296,-81.3502144
Lead: (Kimco) KIMCO - Columbia Crossing,Lead,39.196768,-76.8141702
Lead: (Kimco) KIMCO - Columbia Crossing II S.C.,Lead,39.1975093,-76.8110767
Lead: (Kimco) KIMCO - Commerce Center East and West,Lead,40.6285101,-74.3160377
Lead: (Kimco) KIMCO - Commons at Holmdel,Lead,40.4108602,-74.1458359
Lead: (Kimco) KIMCO - Concourse Plaza,Lead,40.8252165,-73.9202784
Lead: (Kimco) KIMCO - Conroe Marketplace,Lead,30.3467209,-95.4808184
Lead: (Kimco) KIMCO - Copperfield Village,Lead,29.880992,-95.6463661
Lead: (Kimco) KIMCO - Copperwood Village,Lead,29.8757683,-95.6461821
Lead: (Kimco) KIMCO - Coral Creek Shops,Lead,26.3104347,-80.2005214
Lead: (Kimco) KIMCO - Coral Pointe S.C.,Lead,26.6191717,-81.9396971
Lead: (Kimco) KIMCO - Coral Square Promenade,Lead,26.2409035,-80.253501
Lead: (Kimco) KIMCO - Coral Way Plaza,Lead,25.7485247,-80.3373822
Lead: (Kimco) KIMCO - Corona Hills Plaza,Lead,33.8882303,-117.5203465
Lead: (Kimco) KIMCO - Corsica Square S.C.,Lead,25.626619,-80.448491
Lead: (Kimco) KIMCO - Costco Plaza - Alhambra,Lead,34.0898303,-118.148657
Lead: (Kimco) KIMCO - Costco Plaza - Fairfax,Lead,38.8493355,-77.3718217
Lead: (Kimco) KIMCO - Cottman & Bustleton Center,Lead,40.0519912,-75.0581922
Lead: (Kimco) KIMCO - Countryside Centre,Lead,28.0137308,-82.7343688
Lead: (Kimco) KIMCO - Covina Town Square,Lead,34.1041625,-117.9038078
Lead: (Kimco) KIMCO - Covington Esplanade,Lead,47.3587698,-122.0977883
Lead: (Kimco) KIMCO - Cranberry Commons,Lead,40.6882161,-80.0829191
Lead: (Kimco) KIMCO - Creekside Center,Lead,,
Lead: (Kimco) KIMCO - Crocker Ranch,Lead,38.7941433,-121.3306413
Lead: (Kimco) KIMCO - Crofton Centre,Lead,39.0166786,-76.6948166
Lead: (Kimco) KIMCO - Crossing At Stonegate,Lead,39.5360303,-104.7906562
Lead: (Kimco) KIMCO - Crossroads Plaza,Lead,35.7616046,-78.7376261
Lead: (Kimco) KIMCO - Crossroads Plaza - Richboro,Lead,40.2084091,-75.0129146
Lead: (Kimco) KIMCO - Cupertino Village,Lead,37.3357263,-122.0154226
Lead: (Kimco) KIMCO - Curlew Crossing S.C.,Lead,28.0472494,-82.7396348
Lead: (Kimco) KIMCO - Cypress Creek Station,Lead,26.2063227,-80.1479325
Lead: (Kimco) KIMCO - Cypress Point,Lead,,
Lead: (Kimco) KIMCO - Cypress Towne Center,Lead,29.968103,-95.6934243
Lead: (Kimco) KIMCO - D'Andrea Marketplace,Lead,39.5564471,-119.7044304
Lead: (Kimco) KIMCO - Home Depot Plaza - Copiague,Lead,40.6871939,-73.4073689
Lead: (Kimco) KIMCO - Home Depot Plaza - North Haven,Lead,41.3574603,-72.8705628
Lead: (Kimco) KIMCO - Home Depot Plaza - Santa Ana,Lead,33.700752,-117.9173189
Lead: (Kimco) KIMCO - Homestead S.C.,Lead,30.4736524,-97.8007048
Lead: (Kimco) KIMCO - Homestead Towne Square,Lead,25.4791882,-80.462838
Lead: (Kimco) KIMCO - Hope Valley Commons,Lead,35.9186183,-78.9592423
Lead: (Kimco) KIMCO - Horsham Point,Lead,40.2078707,-75.1787314
Lead: (Kimco) KIMCO - Hunter's Square,Lead,42.9927368,-87.9552917
Lead: (Kimco) KIMCO - Independence Plaza - Laredo,Lead,27.6075937,-99.4750472
Lead: (Kimco) KIMCO - Independence Plaza - Selden,Lead,40.8637577,-73.0519615
Lead: (Kimco) KIMCO - Ingleside S.C.,Lead,39.289809,-76.7297493
Lead: (Kimco) KIMCO - Ives Dairy Crossing,Lead,26.1417688,-80.2015415
Lead: (Kimco) KIMCO - Jantzen Beach Center,Lead,45.6141211,-122.6853825
Lead: (Kimco) KIMCO - Jefferson Square,Lead,,
Lead: (Kimco) KIMCO - Jericho Atrium,Lead,40.7908597,-73.5349765
Lead: (Kimco) KIMCO - Jericho Commons,Lead,40.7905138,-73.5352662
Lead: (Kimco) KIMCO - Jetton Village Shoppes,Lead,35.4779258,-80.8935985
Lead: (Kimco) KIMCO - Kendale Lakes Plaza,Lead,25.6859903,-80.4203675
Lead: (Kimco) KIMCO - Kenneth Hahn Plaza,Lead,33.9259843,-118.2387733
Lead: (Kimco) KIMCO - Kentlands Market Square,Lead,39.12445,-77.2356737
Lead: (Kimco) KIMCO - Kernan Village,Lead,30.3170488,-81.4899097
Lead: (Kimco) KIMCO - Key Food - 21st Street,Lead,40.747822,-73.9472316
Lead: (Kimco) KIMCO - Key Food - Atlantic Avenue,Lead,40.6903995,-73.9941403
Lead: (Kimco) KIMCO - Key Food - Central Avenue,Lead,40.6829301,-73.7147647
Lead: (Kimco) KIMCO - Kings Contrivance,Lead,39.1586735,-76.8663307
Lead: (Kimco) KIMCO - Kings Crossing,Lead,30.0489047,-95.1820693
Lead: (Kimco) KIMCO - Kings Highway S.C.,Lead,40.6088024,-73.9590134
Lead: (Kimco) KIMCO - Kissena Blvd S.C.,Lead,40.7505156,-73.8181034
Lead: (Kimco) KIMCO - Kroger Plaza,Lead,36.85223,-76.0280685
Lead: (Kimco) KIMCO - La Mirada Theater Center,Lead,33.8974392,-118.0068638
Lead: (Kimco) KIMCO - La Verne Towne Center,Lead,34.1100803,-117.7585412
Lead: (Kimco) KIMCO - Laband Village S.C.,Lead,33.9943466,-117.7593066
Lead: (Kimco) KIMCO - Lake Prairie Towne Crossing,Lead,32.6447361,-97.0599353
Lead: (Kimco) KIMCO - Lake Wales S.C.,Lead,27.9014133,-81.5859099
Lead: (Kimco) KIMCO - Lakehills Plaza,Lead,30.2337338,-97.7926494
Lead: (Kimco) KIMCO - Lakeside Marketplace,Lead,34.0384092,-84.6854082
Lead: (Kimco) KIMCO - Lakewood Plaza,Lead,33.8760098,-118.1404515
Lead: (Kimco) KIMCO - Lakewood Village,Lead,33.839601,-118.1338535
Lead: (Kimco) KIMCO - Largo Plaza,Lead,27.8907956,-82.785102
Lead: (Kimco) KIMCO - Larwin Square S.C.,Lead,33.7446348,-117.8171255
Lead: (Kimco) KIMCO - Las Tiendas Plaza,Lead,25.9681371,-97.5094073
Lead: (Kimco) KIMCO - Las Tiendas S.C.,Lead,26.1858861,-98.2117527
Lead: (Kimco) KIMCO - Laurel Plaza,Lead,39.0965702,-76.8395543
Lead: (Kimco) KIMCO - Lawrenceville Market,Lead,33.9704613,-84.0166696
Lead: (Kimco) KIMCO - Leesville Towne Centre,Lead,35.9087546,-78.7260177
Lead: (Kimco) KIMCO - Lincoln Hills Town Center,Lead,38.8782081,-121.2944396
Lead: (Kimco) KIMCO - Lincoln Square,Lead,39.9383261,-75.1670085
Lead: (Kimco) KIMCO - Linda Mar S.C.,Lead,37.5884159,-122.4939937
Lead: (Kimco) KIMCO - Linden Plaza,Lead,40.6728365,-73.8661689
Lead: (Kimco) KIMCO - Little Neck Plaza,Lead,40.7648346,-73.7257557
Lead: (Kimco) KIMCO - Loma Square,Lead,32.7478363,-117.2057935
Lead: (Kimco) KIMCO - Long Gate S.C.,Lead,39.25171,-76.8187489
Lead: (Kimco) KIMCO - Los Colobos,Lead,18.3758445,-65.9257421
Lead: (Kimco) KIMCO - Lowry Town Center,Lead,39.7204916,-104.902641
Lead: (Kimco) KIMCO - Madera Village,Lead,32.2584843,-110.7974501
Lead: (Kimco) KIMCO - Madison Plaza,Lead,,
Lead: (Kimco) KIMCO - Madison Village Marketplace,Lead,33.5386513,-112.0626858
Lead: (Kimco) KIMCO - Magnolia Square S.C.,Lead,37.7798885,-121.9720888
Lead: (Kimco) KIMCO - Main St. Plaza,Lead,40.9859962,-75.1924435
Lead: (Kimco) KIMCO - Main Street Marketplace,Lead,38.8455312,-77.3016205
Lead: (Kimco) KIMCO - Manati Villa Maria S.C.,Lead,18.4309377,-66.4889147
Lead: (Kimco) KIMCO - Manetto Hill Plaza,Lead,40.7853148,-73.4743291
Lead: (Kimco) KIMCO - Manhasset Center,Lead,40.7920615,-73.6951183
Lead: (Kimco) KIMCO - Maple Shade,Lead,39.9526127,-74.9923915
Lead: (Kimco) KIMCO - Maplewood Plaza,Lead,26.2455455,-80.2544755
Lead: (Kimco) KIMCO - Marathon S.C.,Lead,24.716405,-81.073318
Lead: (Kimco) KIMCO - Marina Village,Lead,,
Lead: (Kimco) KIMCO - Market at Bay Shore,Lead,40.739316,-73.2409389
Lead: (Kimco) KIMCO - Market at Haynes Bridge,Lead,34.0226959,-84.2713127
Lead: (Kimco) KIMCO - Market at Nolana,Lead,26.2424526,-98.2452267
Lead: (Kimco) KIMCO - Market at Sharyland Place,Lead,26.1950616,-98.2881023
Lead: (Kimco) KIMCO - Market at Southpark,Lead,39.5717665,-104.9896027
Lead: (Kimco) KIMCO - Marketplace of Delray,Lead,26.4561034,-80.1891201
Lead: (Kimco) KIMCO - Mary Brickell Village,Lead,25.765,-80.1938889
Lead: (Kimco) KIMCO - McAllen Center,Lead,26.195749,-98.232587
Lead: (Kimco) KIMCO - McQueen Crossings S.C.,Lead,39.5283939,-119.8816076
Lead: (Kimco) KIMCO - Meadowbrook Commons,Lead,40.6564489,-73.5719832
Lead: (Kimco) KIMCO - Memorial Plaza,Lead,41.1341571,-73.7928716
Lead: (Kimco) KIMCO - Mendenhall Commons,Lead,35.1163452,-89.8942138
Lead: (Kimco) KIMCO - Merchant's Square Pads,Lead,,
Lead: (Kimco) KIMCO - Merchants Walk,Lead,27.9983159,-81.9590645
Lead: (Kimco) KIMCO - Meridian Town Center,Lead,47.1474784,-122.2929453
Lead: (Kimco) KIMCO - Merrick Commons,Lead,40.6527179,-73.5601009
Lead: (Kimco) KIMCO - Mesa Riverview,Lead,33.4334685,-111.8700389
Lead: (Kimco) KIMCO - Met Fresh,Lead,,
Lead: (Kimco) KIMCO - Metro Square,Lead,33.5827404,-112.1195483
Lead: (Kimco) KIMCO - Mill Basin Plaza,Lead,40.6119661,-73.9165638
Lead: (Kimco) KIMCO - Mill St. Plaza,Lead,42.2473417,-71.8323539
Lead: (Kimco) KIMCO - Mill Station,Lead,39.4062432,-76.7903778
Lead: (Kimco) KIMCO - Millenia Plaza,Lead,28.4854599,-81.4315609
Lead: (Kimco) KIMCO - Miller Road S.C.,Lead,25.7155327,-80.3455487
Lead: (Kimco) KIMCO - Miller West Plaza,Lead,25.7147153,-80.4482268
Lead: (Kimco) KIMCO - Milleridge Inn,Lead,40.7915608,-73.5377635
Lead: (Kimco) KIMCO - Milwaukie Marketplace,Lead,45.4431899,-122.6268065
Lead: (Kimco) KIMCO - Mineola Crossings,Lead,40.7555807,-73.6238954
Lead: (Kimco) KIMCO - Mission Bay Plaza,Lead,26.3700995,-80.2052463
Lead: (Kimco) KIMCO - Mission Bell S.C.,Lead,28.0634198,-82.5012819
Lead: (Kimco) KIMCO - Monte Vista Village Center,Lead,33.3780023,-111.6377438
Lead: (Kimco) KIMCO - Montebello Town Square,Lead,34.0331528,-118.0936959
Lead: (Kimco) KIMCO - Montgomery Plaza,Lead,32.7533607,-97.3528999
Lead: (Kimco) KIMCO - Montgomery Square,Lead,,
Lead: (Kimco) KIMCO - Mooresville Crossing,Lead,35.5945971,-80.87474
Lead: (Kimco) KIMCO - Morena Plaza,Lead,32.8226445,-117.2252631
Lead: (Kimco) KIMCO - Morrissey Plaza,Lead,42.2974898,-71.0498751
Lead: (Kimco) KIMCO - Mountain Square,Lead,34.090222,-117.6683849
Lead: (Kimco) KIMCO - Mountain Valley,Lead,,
Lead: (Kimco) KIMCO - Mueller Regional Retail Center,Lead,30.3057763,-97.7097641
Lead: (Kimco) KIMCO - Munsey Park Plaza,Lead,40.7948773,-73.6846076
Lead: (Kimco) KIMCO - Nasa Plaza,Lead,28.0947782,-80.6199077
Lead: (Kimco) KIMCO - New Hope Commons,Lead,35.9543995,-78.9972535
Lead: (Kimco) KIMCO - Newnan Pavilion,Lead,33.3978099,-84.7400924
Lead: (Kimco) KIMCO - Newtown S.C.,Lead,41.4071507,-73.4149887
Lead: (Kimco) KIMCO - Norriton Square,Lead,40.1402065,-75.3081316
Lead: (Kimco) KIMCO - North Ave. Plaza,Lead,42.4968079,-71.0702977
Lead: (Kimco) KIMCO - North Brunswick Plaza,Lead,40.4613931,-74.4647429
Lead: (Kimco) KIMCO - North County Plaza,Lead,33.1783766,-117.3381418
Lead: (Kimco) KIMCO - North Creek Plaza,Lead,27.5708176,-99.5003707
Lead: (Kimco) KIMCO - North Decatur Station,Lead,33.7926118,-84.2842493
Lead: (Kimco) KIMCO - North Massapequa S.C.,Lead,40.6910602,-73.4791416
Lead: (Kimco) KIMCO - North Quincy Plaza,Lead,42.2704101,-71.0235567
Lead: (Kimco) KIMCO - North Sharyland Crossing,Lead,26.2004232,-98.2848954
Lead: (Kimco) KIMCO - North Shore Triangle,Lead,40.8679817,-73.6312477
Lead: (Kimco) KIMCO - North Towne Plaza - Albuquerque,Lead,35.1463717,-106.5559212
Lead: (Kimco) KIMCO - North Towne Plaza - Brownsville,Lead,,
Lead: (Kimco) KIMCO - North Valley S.C.,Lead,33.6359561,-112.2298117
Lead: (Kimco) KIMCO - Northborough Crossing,Lead,42.2918963,-71.6728775
Lead: (Kimco) KIMCO - Northcross S.C.,Lead,,
Lead: (Kimco) KIMCO - Northport Center,Lead,40.8400114,-73.3194722
Lead: (Kimco) KIMCO - Northridge S.C. â Arvada,Lead,39.839635,-105.085349
Lead: (Kimco) KIMCO - Northridge S.C. â Oakland Park,Lead,26.1909664,-80.1343098
Lead: (Kimco) KIMCO - Northwoods S.C.,Lead,35.8016569,-78.7850804
Lead: (Kimco) KIMCO - Novato Fair S.C.,Lead,38.1030111,-122.571312
Lead: (Kimco) KIMCO - Oak Forest,Lead,29.8288594,-95.4320619
Lead: (Kimco) KIMCO - Oak Tree Plaza,Lead,27.7814353,-82.7188797
Lead: (Kimco) KIMCO - Oakwood Business Center,Lead,26.0383987,-80.1612597
Lead: (Kimco) KIMCO - Oakwood Plaza North & South,Lead,26.0417906,-80.1604414
Lead: (Kimco) KIMCO - Ocean Plaza,Lead,40.2385217,-74.038426
Lead: (Kimco) KIMCO - Old Navy - McAllen,Lead,26.1871832,-98.2365596
Lead: (Kimco) KIMCO - Old Town Plaza,Lead,38.8477142,-77.305286
Lead: (Kimco) KIMCO - Old Towne Village,Lead,36.265031,-86.7126996
Lead: (Kimco) KIMCO - Olentangy Plaza,Lead,40.0614994,-83.0402835
Lead: (Kimco) KIMCO - Palm Plaza S.C.,Lead,37.999772,-121.2923088
Lead: (Kimco) KIMCO - Palms at Town & Country,Lead,25.6899879,-80.3840086
Lead: (Kimco) KIMCO - Paradise Plaza,Lead,38.3394241,-75.0810829
Lead: (Kimco) KIMCO - Park Hill Plaza,Lead,25.7698203,-80.3514038
Lead: (Kimco) KIMCO - Park Place S.C.,Lead,35.8040976,-78.811048
Lead: (Kimco) KIMCO - Parkway Shops,Lead,30.4829311,-81.6377943
Lead: (Kimco) KIMCO - Parkway Super Center,Lead,47.4460009,-122.2613039
Lead: (Kimco) KIMCO - Patriots Plaza,Lead,38.8834633,-77.0170483
Lead: (Kimco) KIMCO - Pavilions Centre,Lead,47.3205662,-122.3146983
Lead: (Kimco) KIMCO - Pavilions Place,Lead,33.725331,-117.9873913
Lead: (Kimco) KIMCO - Peachtree Hill,Lead,34.0059765,-84.171874
Lead: (Kimco) KIMCO - Pembroke Commons,Lead,26.0136644,-80.2518216
Lead: (Kimco) KIMCO - Pentagon Centre,Lead,38.8619411,-77.0592162
Lead: (Kimco) KIMCO - Perimeter Expo,Lead,33.9198776,-84.3416694
Lead: (Kimco) KIMCO - Perimeter Village,Lead,33.9329224,-84.3344604
Lead: (Kimco) KIMCO - Phillips Crossing,Lead,28.4482484,-81.4766091
Lead: (Kimco) KIMCO - Pike Center,Lead,39.0572223,-77.1190318
Lead: (Kimco) KIMCO - Pinetree Plaza,Lead,33.8964189,-84.2814274
Lead: (Kimco) KIMCO - Piscataway Town Center,Lead,40.554887,-74.4642861
Lead: (Kimco) KIMCO - Plantation Centre,Lead,27.5765427,-99.4719561
Lead: (Kimco) KIMCO - Plantation Commons,Lead,26.1045895,-80.2518374
Lead: (Kimco) KIMCO - Plaza @ Mountainside,Lead,33.3031927,-111.996199
Lead: (Kimco) KIMCO - Plaza 580 S.C.,Lead,37.7001899,-121.7438396
Lead: (Kimco) KIMCO - Plaza at Brandon Town Center,Lead,27.9365846,-82.3237317
Lead: (Kimco) KIMCO - Plaza at Hillsdale,Lead,41.0010741,-74.0412612
Lead: (Kimco) KIMCO - Plaza at Short Hills,Lead,40.7222684,-74.3345413
Lead: (Kimco) KIMCO - Plaza Centro,Lead,18.2490302,-66.0218197
Lead: (Kimco) KIMCO - Plaza Del Prado,Lead,42.1047225,-87.8473016
Lead: (Kimco) KIMCO - Plaza del Sol,Lead,32.1745354,-110.9918932
Lead: (Kimco) KIMCO - Plaza Di Northridge,Lead,34.2418761,-118.5588976
Lead: (Kimco) KIMCO - Pleasant Valley Promenade,Lead,35.8582377,-78.7026852
Lead: (Kimco) KIMCO - Pocono Plaza,Lead,40.992201,-75.1819062
Lead: (Kimco) KIMCO - Pompano Pointe S.C.,Lead,26.2608759,-80.1003374
Lead: (Kimco) KIMCO - Ponce Towne Center,Lead,17.9957745,-66.638146
Lead: (Kimco) KIMCO - Potomac Run Plaza,Lead,39.0270019,-77.3986182
Lead: (Kimco) KIMCO - Poway City Centre,Lead,32.9575463,-117.0354163
Lead: (Kimco) KIMCO - Preston Forest Village,Lead,32.9090121,-96.8052999
Lead: (Kimco) KIMCO - Preston Lebanon Crossing,Lead,33.1230631,-96.8036186
Lead: (Kimco) KIMCO - Promenade at Pleasant Hill,Lead,33.9439855,-84.1282272
Lead: (Kimco) KIMCO - Providence Marketplace,Lead,36.167246,-86.510578
Lead: (Kimco) KIMCO - Publix at Princeton Lakes,Lead,33.6564029,-84.510747
Lead: (Kimco) KIMCO - Pueblo Anozira,Lead,33.3621468,-111.9091421
Lead: (Kimco) KIMCO - Putty Hill Plaza,Lead,39.3739931,-76.5107321
Lead: (Kimco) KIMCO - Quail Corners,Lead,35.1168304,-80.8580128
Lead: (Kimco) KIMCO - Queen Anne Marketplace,Lead,47.6248497,-122.3549971
Lead: (Kimco) KIMCO - Quincy Place S.C.,Lead,39.6393529,-104.7934426
Lead: (Kimco) KIMCO - Radcliffe Center,Lead,39.4114646,-76.6087951
Lead: (Kimco) KIMCO - Rainier Valley Square,Lead,47.5689746,-122.2888864
Lead: (Kimco) KIMCO - Raintree Ranch Center,Lead,33.3183793,-111.8927755
Lead: (Kimco) KIMCO - Raleigh Hills Plaza,Lead,45.4856162,-122.7512342
Lead: (Kimco) KIMCO - Ralph Avenue Plaza,Lead,40.6223813,-73.916647
Lead: (Kimco) KIMCO - Rancho Penasquitos Towne Ctr.,Lead,32.9574445,-117.1266194
Lead: (Kimco) KIMCO - Rancho San Diego,Lead,32.7472748,-116.9353032
Lead: (Kimco) KIMCO - Rancho San Marcos Village,Lead,33.1327155,-117.2063411
Lead: (Kimco) KIMCO - Rancho Towne & Country,Lead,36.1616956,-115.1732142
Lead: (Kimco) KIMCO - Red Mountain Gateway,Lead,33.4526499,-111.6829168
Lead: (Kimco) KIMCO - Redfield Promenade,Lead,39.4803493,-119.7919815
Lead: (Kimco) KIMCO - Redhawk Towne Center,Lead,33.4803379,-117.0969473
Lead: (Kimco) KIMCO - Redwood City Plaza,Lead,,
"Lead: (SEA-005) 5350 30th Ave NW, Seattle, WA 98107, USA",Lead,47.6670304,-122.3939333
"Lead: (SEA-006) 3435 15th Ave W, Seattle, WA 98119, USA",Lead,47.6511806,-122.3765885
"Lead: (SEA-007) 8507 14th Ave S, Seattle, WA 98108, USA",Lead,47.5269349,-122.3151999
"Lead: (SEA-008) 4253 22nd Ave W, Seattle, WA 98199, USA",Lead,47.6590462,-122.3849442
"Lead: (SEA-010) 704 Northeast Northlake Way, Seattle, WA 98105, USA",Lead,47.6547201,-122.3206535
"Lead: (SEA-012) 825 Northeast Northgate Way, Seattle, WA 98125, USA",Lead,47.7077539,-122.319135
"Lead: (SEA-014) 130 5th Avenue, Seattle, WA 98109, USA",Lead,47.6194386,-122.3472496
"Lead: (SEA-015) 2311 2nd Avenue, Seattle, WA 98121, USA",Lead,47.6141583,-122.3462485
"Lead: (SEA-020) 802 Pine St, Seattle, WA 98101, USA",Lead,47.613412,-122.3330222
"Lead: (SEA-021) 2301 8th Ave, Seattle, WA 98121, USA",Lead,47.6181234,-122.3413181
"Lead: (SEA-022) 11211 Main St, Bellevue, WA 98004, USA",Lead,47.6093933,-122.1902186
"Lead: (SEA-023) 714 1st Ave S, Seattle, WA 98104, USA",Lead,47.5959751,-122.3337525
"Lead: (SEA-025) 4260 23rd Ave W, Seattle, WA 98199, USA",Lead,47.6593454,-122.3856079
"Lead: (SEA-026) 1501 S Donovan St, Seattle, WA 98108, USA",Lead,47.52534,-122.313125
"Lead: (SEA-027) 3204 Richards Rd, Bellevue, WA 98005, USA",Lead,47.5816209,-122.1677046
"Lead: (SEA-028) 4111 Aurora Ave N, Seattle, WA 98103, USA",Lead,47.6569729,-122.3476935
"Lead: (SEA-038) 1319 Pacific Ave, Tacoma, WA 98402, USA",Lead,47.2507267,-122.4380441
"Lead: (SEA-039) 23607 Hwy 99, Edmonds, WA 98026, USA",Lead,47.7845884,-122.3419925
"Lead: (SEA-041) 401 Rainier Ave N, Renton, WA 98057, USA",Lead,47.4884168,-122.2185098
"Lead: (SEA-042) 652 Elliott Ave W, Seattle, WA 98119, USA",Lead,47.6259873,-122.3670844
"Lead: (SEA-043) 10512 Greenwood Ave N, Seattle, WA 98133, USA",Lead,47.7056005,-122.3550122
"Lead: (SEA-044) 957 S Doris St, Seattle, WA 98108, USA",Lead,47.5497972,-122.3183409
"Lead: (SEA-045) 360 Corporate Dr N, Tukwila, WA 98188, USA",Lead,47.4514658,-122.2565495
"Lead: (SEA-800) 1200 Westlake Ave N, Seattle, WA 98109, USA",Lead,47.6300119,-122.33959
"Lead: (SEA-801) 4101 University Way NE, Seattle, WA, USA",Lead,47.6569902,-122.3134456
"Lead: (SEA-806) 2200 148th Ave NE, Redmond, WA 98052, USA",Lead,47.6301395,-122.1412926
"Lead: (SEA-888) 1165 Harrison St, Seattle, WA 98109, USA",Lead,47.6218303,-122.3335376
"Lead: (SEA-999) 3024 Richards Rd, Bellevue, WA 98005, USA",Lead,47.5836014,-122.1660585
"Lead: (SFO-001) 375 Pacific Ave, San Francisco, CA 94111, USA",Lead,37.7974642,-122.4017085
"Lead: (SFO-002) 3115 Mission Street, San Francisco, CA 94110, USA",Lead,37.7475747,-122.418267
"Lead: (SFO-004) 74 Stanford St, San Francisco, CA 94107, USA",Lead,37.7804142,-122.3916546
"Lead: (SFO-006) 468 Capp St, San Francisco, CA 94110, USA",Lead,37.7591466,-122.4183011
"Lead: (SFO-009) 535 Green St, San Francisco, CA 94133, USA",Lead,37.7994407,-122.4080348
"Lead: (SFO-014) 1379 4th St, San Francisco, CA 94158, USA",Lead,37.7708889,-122.3902876
"Lead: (SFO-015) 601 Mission Bay Boulevard South, San Francisco, CA 94158, USA",Lead,37.7707491,-122.3916769
"Lead: (SFO-016) 1210 35th Ave, Oakland, CA 94601, USA",Lead,37.7755889,-122.2228363
"Lead: (SFO-044) 1010 22nd Ave, Oakland, CA 94606, USA",Lead,37.7819959,-122.2403645
"Lead: (SFO-045) 1750 Cesar Chavez unit h, San Francisco, CA 94124, USA",Lead,37.7509743,-122.3940888
"Lead: (SFO-045) 500 Grand Ave, Oakland, CA 94610, USA",Lead,37.808888,-122.251359
"Lead: (SFO-800) 135 4th Street, San Francisco, CA 94103, USA",Lead,37.7843318,-122.4033663
"Lead: (SFO-802) 136 Townsend St, San Francisco, CA 94107, USA",Lead,37.7801666,-122.3916612
"Lead: (SFO-803) 768 Sansome St, San Francisco, CA 94111, USA",Lead,37.7973969,-122.401673
"Lead: (SFO-805) 2351 Mission Street, San Francisco, CA 94110, USA",Lead,37.7593428,-122.4188975
"Lead: (TOR-001) 736 Sussex Mews, Toronto, ON M5S 1X6, Canada",Lead,43.6656666,-79.4040885
"Lead: (TOR-002) 950 King St W, Toronto, ON M5V 1P5, Canada",Lead,43.6423264,-79.4117909
"Lead: (TOR-004) 1071 King St W, Toronto, ON M6K 1J7, Canada",Lead,43.6377664,-79.4441671
"Lead: (TOR-007) 54 Fraser Ave, Toronto, ON M6K 1Y6, Canada",Lead,43.6369428,-79.4240459
"Lead: (TOR-008) 300 Geary Ave, Toronto, ON M6H 2C5, Canada",Lead,43.6693289,-79.441639
"Lead: (TOR-011) 96 Vanderhoof Ave, East York, ON, Canada",Lead,43.7123351,-79.3622092
"Lead: (TOR-012) 700 Lawrence Ave W Parking, Toronto, ON, Canada",Lead,43.7178325,-79.4475821
"Lead: (TOR-013) 291 Lakeshore Blvd E, Toronto, ON M5A 1B9, Canada",Lead,43.6469612,-79.3626598
"Lead: (TOR-014) 3003 Danforth Ave, Toronto, ON M4C 1M4, Canada",Lead,43.6897895,-79.2909178
"Lead: (TOR-020) 2915 Bloor St W, Etobicoke, ON M8X 1B8, Canada",Lead,43.648198,-79.5065607
"Lead: (TOR-022) 3785 Lake Shore Blvd W, Etobicoke, ON M8W 1R1, Canada",Lead,43.5924137,-79.5415301
"Lead: (TOR-024) 2444 Yonge St, Toronto, ON M4P 2H4, Canada",Lead,43.7106937,-79.3994776
"Lead: (TOR-027) 1230 Lakeshore Rd E, Mississauga, ON L5E 1E9, Canada",Lead,43.5808286,-79.5528539
"Lead: (TOR-036) 3615 Saint Clair Avenue East, Scarborough, ON M1N 1T1, Canada",Lead,43.7185546,-79.2515915
"Lead: (TOR-041) 2256 Lake Shore Blvd W, Etobicoke, ON M8V 1A9, Canada",Lead,43.6207149,-79.483804
"Lead: (TOR-042) 250 Wincott Dr, Etobicoke, ON M9R 2R5, Canada",Lead,43.679634,-79.54644
"Lead: (TOR-043) 900 Don Mills Road unit 2, North York, ON M3C 1V6, Canada",Lead,43.7267974,-79.3425073
"Lead: (TOR-999) 125 The Queensway, Toronto, ON M8Y 1H6, Canada",Lead,43.6304954,-79.4822622
"Lead: (TOR-999) 3090 Kingston Rd, Scarborough, ON M1M 1P2, Canada",Lead,43.7266907,-79.2314918
"Lead: (TOR-999) 44 Wellesworth Dr, Etobicoke, ON M9C 4R1, Canada",Lead,43.6667777,-79.5786746
"Lead: (TPA-001) 500 N Florida Ave, Tampa, FL 33602, USA",Lead,27.9487129,-82.4577175
"Lead: (TPA-003) 223 N 12th St, Tampa, FL 33602, USA",Lead,27.949946,-82.446232
"Lead: (TPA-005) 946 East Twiggs Street, Tampa, FL 33602, USA",Lead,27.951765,-82.4520156
"Lead: (TPA-006) 916 E Twiggs St, Tampa, FL 33602, USA",Lead,27.9513143,-82.4531324
"Lead: (VAN-002) 987 Helmcken St, Vancouver, BC V6Z 2S5, Canada",Lead,49.2799615,-123.1270487
"Lead: (VAN-003) 1125 Davie Street, Vancouver, BC V6E 1N2, Canada",Lead,49.2809804,-123.1315024
"Lead: (VAN-004) 848 Seymour Street, Vancouver, BC V6B 3L4, Canada",Lead,49.280176,-123.1190759
"Lead: (VAN-005) 1585 West 2nd Avenue, Vancouver, BC V6J 1H2, Canada",Lead,49.2698349,-123.1405656
"Lead: (VAN-010) 830 Thurlow Street, Vancouver, BC V6E 3Z8, Canada",Lead,49.2840972,-123.1253499
Engaged: Accor - H7813 - LONDON SHEPHERD'S BUSH - HAMMERSMITH,Engaged,51.5033453,-0.2201202
Engaged: Accor - H3145 - MANCHESTER CENTRE,Engaged,53.4770762,-2.2413351
"Engaged: Oya Kitchens - Alaleke Hourly Kitchen, 229",Engaged,51.4907215,0.0324929
Engaged: Buzz Bingo - Wavertree Park Buzz Bingo,Engaged,53.4038762,-2.9466896
"Enrolled: (OTT-900) 1155 Lola St, Ottawa, ON K1K 2C5, Canada",Enrolled,45.4228895,-75.6501788
"Matched: (DXB-053) Kitchen 1,Cluster Q JLT",Matched,25.0755183,55.1453413
Activated: (LDN-005) REEF - Kentish Town,Activated,51.5502905,-0.144764
"Activated: (MIN-030) 409 S 9Th St, Minneapolis",Activated,44.972104,-93.267959
Activated: (DXB-040) JUMEIRAH VILLAGE CIRCLE,Activated,25.0608609,55.2088007
Churned: (LDN-002) REEF - Canary Wharf (Thames Circle),Churned,51.4915579,-0.0237704
Lead: Accor - H8712 - LONDON EXCEL HOTEL,Lead,51.5099472,0.0272104
Lead: Accor - H3321 - BERLIN SPANDAU,Lead,52.5151227,13.4126618
Lead: Accor - HA0F2 - MADRID CENTRO LAVAPIÉS,Lead,40.4079028,-3.7007267
Lead: Workspace - Workspace Highbury,Lead,51.55054,-0.0974535
"Lead: (ATL-058) 464 Windsor St SW, Atlanta, GA, USA",Lead,33.7422251,-84.3978289
"Lead: (AUS-014) 7814 S 1st St, Austin, TX 78745, USA",Lead,30.1844657,-97.7928412
"Lead: (AUS-800) 251 A.W. Grimes Blvd, Round Rock, TX 78665, USA",Lead,30.5158185,-97.6547262
"Lead: (BAL-022) 6325 Erdman Ave, Baltimore, MD 21205, USA",Lead,39.3017096,-76.5403387
"Lead: (BOS-005) 259 Quincy St, Boston, MA 02121, USA",Lead,42.3117883,-71.0724798
"Lead: (CGY-014) 919 8th Avenue Southwest, Calgary, AB T2P 1J1, Canada",Lead,51.0459854,-114.0830694
"Lead: (CHI-019) 880 South Wells Street, Chicago, IL 60607, USA",Lead,41.8707537,-87.6336549
"Lead: (DAL-001) 2210 Butler St, Dallas, TX 75235, USA",Lead,32.8146879,-96.837753
"Lead: (DAL-029) 3116 W Parker Rd, Plano, TX 75023, USA",Lead,33.040442,-96.754602
"Lead: (DAL-052) 6846 Greenville Ave, Dallas, TX 75231, USA",Lead,32.8701569,-96.7655034
"Lead: (DEN-004) Denver Premium Outlets, 13801 Grant St, Thornton, CO 80023, USA",Lead,39.9473688,-104.9857779
"Lead: (DET-008) 7451 Woodward Ave, Detroit, MI 48202, USA",Lead,42.3721123,-83.0749774
"Lead: (DET-026) 1833 E 8 Mile Rd, Detroit, MI 48203, USA",Lead,42.450769,-82.9111138
"Lead: (HOU-013) 2830 Wilcrest Dr, Houston, TX 77042, USA",Lead,29.7338108,-95.572546
"Lead: (HOU-038) 8100 S Kirkwood Rd, Houston, TX 77072, USA",Lead,29.6897942,-95.5882141
"Lead: (Kimco) KIMCO - 1934, 1935 and 1939 West Gray",Lead,29.7528795,-95.4057997
Lead: (Kimco) KIMCO - Atlantic West,Lead,26.2334305,-80.2189891
Lead: Pelican London,Lead,51.425762,-0.178462
"Engaged: Oya Kitchens - Trapeze Bar, East London Shoreditch - 404",Engaged,51.5256992,-0.0833529
"Engaged: Oya Kitchens - Rising Sun Victoria, 336",Engaged,51.4901055,-0.1504001
Engaged: Buzz Bingo - Enfield Buzz Bingo,Engaged,51.6514993,-0.0580694
"Enrolled: (RDU-001) 2400 John Brantley Blvd, Morrisville",Enrolled,35.8771444,-78.7931684
Matched: (MIA-113) REEF - 3900 W Hallandale,Matched,25.9842688,-80.1820284
Matched: Desfase Maldonado,Matched,40.4341939,-3.6848483
"Activated: (GBY-001) 1201 Water's Edge Dr, Granbury",Activated,32.4323384,-97.7750344
Activated: (DXB-026) Foxhill 9 - Motor City - Up Town Motor City - Dubai - United Arab Emirates,Activated,25.0479413,55.2471454
Activated: (DXB-049) Al Wasl Dubai,Activated,25.2013365,55.2505877
Lead: Accor - H6390 - YORK CENTRE,Lead,53.953444,-1.0940447
Lead: Accor - HB8F3 - PORTISHEAD HARBOUR,Lead,51.4859677,-2.7636118
Lead: Accor - H5100 - MADRID CALLE ALCALA,Lead,40.4370775,-3.6261936
Lead: Workspace - Workspace Hackney,Lead,51.5238339,-0.0829043
"Lead: (ATL-043) 104 John Portman Boulevard Northwest, Atlanta, GA 30303, USA",Lead,33.7606328,-84.3911396
"Lead: (AUS-005) 1501 E 13th St, Austin, TX 78702, USA",Lead,30.2739219,-97.7237285
"Lead: (AUS-029) 5002 Hamilton Rd, Austin, TX 78759, USA",Lead,30.4029928,-97.7470714
"Lead: (BAL-010) 6190 Seaforth St, Baltimore, MD 21224, USA",Lead,39.2715494,-76.5405391
"Lead: (BAL-033) 3611 Dolfield Ave, Baltimore, MD 21215, USA",Lead,39.3362298,-76.6761722
"Lead: (CGY-004) 718 17 Ave SW, Calgary, AB T2S 0B7, Canada",Lead,51.0381319,-114.0779413
"Lead: (CHI-010) 2811 West Walnut Street, Chicago, IL 60612, USA",Lead,41.8856744,-87.696713
"Lead: (CHI-036) 2548 S California Ave, Chicago, IL 60608, USA",Lead,41.845018,-87.695604
"Lead: (DAL-016) 107 Airport Freeway, Euless, TX 76040, USA",Lead,32.8379694,-97.0842601
"Lead: (DAL-046) 3400 Roseland Ave, Dallas, TX 75204, USA",Lead,32.796408,-96.789473
"Lead: (DAL-064) 14180 Dallas Parkway, Dallas, TX 75254, USA",Lead,32.9417132,-96.821325
"Lead: (DEN-025) 1228 Delaware Street, Denver, CO, USA",Lead,39.7359053,-104.9926986
"Lead: (DET-018) 2550 W Grand Blvd, Detroit, MI 48208, USA",Lead,42.3628716,-83.0917478
"Lead: (EDM-007) 10044 105 St NW, Edmonton, AB T5J 1C3, Canada",Lead,53.5401127,-113.5012416
"Lead: (HOU-024) 8383 Westheimer Rd, Houston, TX 77063, USA",Lead,29.736859,-95.5132634
"Lead: (HOU-051) 6073 Highway 6 North, Houston, TX 77084, USA",Lead,29.8667332,-95.645754
Lead: (Kimco) KIMCO - Alabama Shepherd S.C.,Lead,29.7391967,-95.4113616
Lead: (Kimco) KIMCO - Dania Pointe,Lead,26.0517021,-80.1594596
Lead: (Kimco) KIMCO - Davidson Commons,Lead,35.5004972,-80.8601578
Lead: (Kimco) KIMCO - Dedham Pointe,Lead,,
Lead: (Kimco) KIMCO - Deer Grove Centre,Lead,42.1380024,-88.0272681
Lead: (Kimco) KIMCO - Deerfield Towne Center,Lead,39.3070645,-84.3168575
Lead: (Kimco) KIMCO - Del Monte Plaza,Lead,39.4690761,-119.7872436
Lead: (Kimco) KIMCO - Del Norte Plaza,Lead,37.9200763,-122.3152692
Lead: (Kimco) KIMCO - Desert Village,Lead,33.6956298,-111.8885315
Lead: (Kimco) KIMCO - Devon Village,Lead,40.0488805,-75.4112608
Lead: (Kimco) KIMCO - Doc Stone Commons,Lead,38.4770749,-77.417034
Lead: (Kimco) KIMCO - Dorsey's Search Village Center,Lead,39.242982,-76.8420349
Lead: (Kimco) KIMCO - Dublin Retail Center,Lead,37.7023414,-121.9321835
Lead: (Kimco) KIMCO - Dulles Town Crossing,Lead,39.0239932,-77.4277352
Lead: (Kimco) KIMCO - East Bank S.C.,Lead,39.6409622,-104.8274758
Lead: (Kimco) KIMCO - East Lake Woodlands,Lead,28.0605595,-82.7064665
Lead: (Kimco) KIMCO - East Windsor Village,Lead,40.29086,-74.5825828
Lead: (Kimco) KIMCO - Edgewater Commons,Lead,40.8126406,-73.9834086
Lead: (Kimco) KIMCO - Edgewater Marketplace,Lead,39.7491429,-105.0571798
Lead: (Kimco) KIMCO - El Camino North,Lead,33.1822443,-117.3329197
Lead: (Kimco) KIMCO - El Camino Promenade,Lead,33.0490288,-117.260401
Lead: (Kimco) KIMCO - Elmont S.C.,Lead,40.7067388,-73.6941161
Lead: (Kimco) KIMCO - Elmsford Center,Lead,41.0476741,-73.8073369
Lead: (Kimco) KIMCO - Embassy Lakes,Lead,26.0382259,-80.2879514
Lead: (Kimco) KIMCO - Embry Village,Lead,33.8842357,-84.2484251
Lead: (Kimco) KIMCO - Enchanted Forest S.C.,Lead,39.2805639,-76.8563879
Lead: (Kimco) KIMCO - Englewood Plaza,Lead,39.6560047,-104.9925155
Lead: (Kimco) KIMCO - Entrada de Oro Plaza,Lead,32.3507995,-110.9763524
Lead: (Kimco) KIMCO - Fairway Plaza,Lead,29.6468954,-95.1543638
Lead: (Kimco) KIMCO - Falls Pointe,Lead,35.9295377,-78.5827633
Lead: (Kimco) KIMCO - Falmouth Plaza,Lead,41.5563151,-70.5980697
Lead: (Kimco) KIMCO - Family Dollar Union Turnpike,Lead,40.7187045,-73.8142906
Lead: (Kimco) KIMCO - Fashion Faire Place,Lead,37.7010256,-122.1289987
Lead: (Kimco) KIMCO - Fellsway @ 630,Lead,42.4068962,-71.0838467
Lead: (Kimco) KIMCO - Festival at Hyannis S.C.,Lead,41.675322,-70.304705
Lead: (Kimco) KIMCO - Festival on Jefferson Court,Lead,33.6718816,-84.0588703
Lead: (Kimco) KIMCO - Fiesta Trails,Lead,29.562583,-98.5890653
Lead: (Kimco) KIMCO - Fire Mountain Center,Lead,33.1840361,-117.332021
Lead: (Kimco) KIMCO - Fishtown Crossing,Lead,39.9742515,-75.1200319
Lead: (Kimco) KIMCO - Flagler Park Plaza,Lead,25.7714596,-80.3304152
Lead: (Kimco) KIMCO - Flamingo Pines,Lead,26.0060019,-80.3135478
Lead: (Kimco) KIMCO - Forest Avenue Plaza,Lead,40.6242706,-74.1395018
Lead: (Kimco) KIMCO - Forest Avenue S.C.,Lead,40.6263884,-74.1380356
Lead: (Kimco) KIMCO - Forest Park,Lead,,
Lead: (Kimco) KIMCO - Fountain Plaza,Lead,,
Lead: (Kimco) KIMCO - Francisco Center,Lead,,
Lead: (Kimco) KIMCO - Franklin Park S.C.,Lead,47.7095652,-117.4097818
Lead: (Kimco) KIMCO - Franklin Square S.C.,Lead,40.6895795,-73.6864063
Lead: (Kimco) KIMCO - Freedom Centre,Lead,36.9392479,-121.7761748
Lead: (Kimco) KIMCO - Fremont Hub,Lead,37.5450245,-121.9888002
Lead: (Kimco) KIMCO - Front Range Village,Lead,40.5257243,-105.0248771
Lead: (Kimco) KIMCO - Frontier Village S.C.,Lead,48.0015228,-122.1038047
Lead: (Kimco) KIMCO - Ft. Lauderdale Plaza,Lead,26.1932861,-80.2503992
Lead: (Kimco) KIMCO - Fullerton Plaza,Lead,39.3724927,-76.5082615
Lead: (Kimco) KIMCO - Fulton Market Place,Lead,,
Lead: (Kimco) KIMCO - Gaithersburg S.C.,Lead,39.1617556,-77.2206442
Lead: (Kimco) KIMCO - Galena Junction S.C.,Lead,39.394811,-119.765788
Lead: (Kimco) KIMCO - Galveston Place,Lead,29.2676053,-94.8315776
Lead: (Kimco) KIMCO - Garden State Pavilions,Lead,39.924997,-75.0438018
Lead: (Kimco) KIMCO - Gardena Gateway Center,Lead,33.8721223,-118.2976234
Lead: (Kimco) KIMCO - Gateway at Donner Pass,Lead,39.3267431,-120.2060655
Lead: (Kimco) KIMCO - Gateway Plaza,Lead,37.5536735,-121.9789066
Lead: (Kimco) KIMCO - Gateway S.C.,Lead,47.8770328,-122.2130436
Lead: (Kimco) KIMCO - Gateway Station,Lead,32.5691891,-97.3192966
Lead: (Kimco) KIMCO - Glendale Square,Lead,42.4143893,-71.0469677
Lead: (Kimco) KIMCO - Gordon Plaza,Lead,38.6647644,-77.2486388
Lead: (Kimco) KIMCO - Granary Square,Lead,34.4025403,-118.55113
Lead: (Kimco) KIMCO - Grand Oaks Village,Lead,28.4922538,-81.4921803
Lead: (Kimco) KIMCO - Grand Parkway Marketplace,Lead,30.0873293,-95.5201189
Lead: (Kimco) KIMCO - Grand Parkway Marketplace II,Lead,30.0832071,-95.5211904
Lead: (Kimco) KIMCO - Grand Plaza,Lead,40.5496357,-74.1501911
Lead: (Kimco) KIMCO - Grayson Commons,Lead,33.8970726,-83.9615603
Lead: (Kimco) KIMCO - Greeley Commons,Lead,40.3908798,-104.7573577
Lead: (Kimco) KIMCO - Greenbrier S.C.,Lead,39.5432783,-76.3255113
Lead: (Kimco) KIMCO - Greenhouse Marketplace,Lead,37.6881775,-122.1371512
Lead: (Kimco) KIMCO - Greenridge Plaza,Lead,40.5599857,-74.1683104
Lead: (Kimco) KIMCO - Greenwood S.C.,Lead,39.6374023,-86.1294322
Lead: (Kimco) KIMCO - Gresham Town Fair,Lead,45.5023565,-122.4345389
Lead: (Kimco) KIMCO - Grove Gate S.C.,Lead,25.736189,-80.2444268
Lead: (Kimco) KIMCO - Hamden Mart,Lead,41.3730518,-72.9179149
Lead: (Kimco) KIMCO - Hampton Bays Plaza,Lead,40.8759092,-72.5369412
Lead: (Kimco) KIMCO - Harpers Choice,Lead,39.2192732,-76.8830303
Lead: (Kimco) KIMCO - Harrisburg East S.C.,Lead,40.3074055,-76.803358
Lead: (Kimco) KIMCO - Hawthorn Hills Square S.C.,Lead,42.2389293,-87.9463201
Lead: (Kimco) KIMCO - HEB - Dairy Ashford & Memorial,Lead,29.7790122,-95.6064785
Lead: (Kimco) KIMCO - Heights Plaza,Lead,29.8046144,-95.400182
Lead: (Kimco) KIMCO - Heritage Place,Lead,,
Lead: (Kimco) KIMCO - Heritage West S.C.,Lead,39.6813086,-105.1222872
Lead: (Kimco) KIMCO - Hickory Ridge,Lead,39.1983028,-76.8840977
Lead: (Kimco) KIMCO - Hicksville Plaza,Lead,40.7775841,-73.5290538
Lead: (Kimco) KIMCO - High House Crossing,Lead,35.7854139,-78.8730203
Lead: (Kimco) KIMCO - Highland Lakes Plaza,Lead,28.0777669,-82.7379478
Lead: (Kimco) KIMCO - Highland Square,Lead,33.7934388,-84.3381003
Lead: (Kimco) KIMCO - Highlands Ranch II,Lead,39.5421467,-104.9424222
Lead: (Kimco) KIMCO - Highlands Ranch S.C.,Lead,39.5419117,-104.9398338
Lead: (Kimco) KIMCO - Hillsborough Promenade,Lead,40.51704,-74.62807
Lead: (Kimco) KIMCO - Hilltop Village Center,Lead,38.7426565,-77.1622825
Lead: (Kimco) KIMCO - Hillview S.C.,Lead,39.9361377,-75.0246836
Lead: (Kimco) KIMCO - Holcomb Center,Lead,33.9907954,-84.2749601
Lead: (Kimco) KIMCO - Hollywood Hills Plaza,Lead,26.0143493,-80.1739077
Lead: (Kimco) KIMCO - Holmdel Towne Center,Lead,40.4133187,-74.1446182
Lead: (Kimco) KIMCO - Renaissance Centre,Lead,28.664209,-81.3805383
Lead: (Kimco) KIMCO - Rexville Town Center,Lead,18.3607592,-66.188356
Lead: (Kimco) KIMCO - Richmond S.C.,Lead,40.5751004,-74.1674957
Lead: (Kimco) KIMCO - Richmond Square,Lead,29.7310149,-95.4626908
Lead: (Kimco) KIMCO - Ridgedale Festival Center,Lead,44.9725252,-93.4571799
Lead: (Kimco) KIMCO - Ridgewood S.C.,Lead,40.9784076,-74.1225049
Lead: (Kimco) KIMCO - River City Marketplace,Lead,30.4807854,-81.6352419
Lead: (Kimco) KIMCO - River Hill Village Center,Lead,39.2115697,-76.935649
Lead: (Kimco) KIMCO - River Oaks S.C.,Lead,,
Lead: (Kimco) KIMCO - River Point at Sheridan,Lead,39.6491563,-105.0053602
Lead: (Kimco) KIMCO - Riverplace S.C.,Lead,30.1731999,-81.6260725
Lead: (Kimco) KIMCO - Riverside Landings,Lead,28.6610336,-81.178543
Lead: (Kimco) KIMCO - Riverwalk Marketplace,Lead,34.0173894,-84.1867237
Lead: (Kimco) KIMCO - Rock Prairie Marketplace,Lead,30.5850428,-96.2832828
Lead: (Kimco) KIMCO - Rockingham Plaza,Lead,42.7666104,-71.2198604
Lead: (Kimco) KIMCO - Romaine Plaza,Lead,40.9190294,-73.8951511
Lead: (Kimco) KIMCO - Roswell Corners,Lead,34.063984,-84.395181
Lead: (Kimco) KIMCO - Roswell Crossing,Lead,34.0574082,-84.3792808
Lead: (Kimco) KIMCO - Round Rock S.C.,Lead,30.5181342,-97.6904578
Lead: (Kimco) KIMCO - San Marcos Plaza,Lead,33.1312386,-117.2099496
Lead: (Kimco) KIMCO - Santee Trolley Square,Lead,32.8410218,-116.9808709
Lead: (Kimco) KIMCO - Scottsdale Horizon,Lead,33.6199054,-111.8699004
Lead: (Kimco) KIMCO - Scottsdale Waterfront,Lead,33.5013332,-111.9277822
Lead: (Kimco) KIMCO - Sea Ranch Centre,Lead,26.1981438,-80.0967033
Lead: (Kimco) KIMCO - Sequams SC,Lead,40.696737,-73.3114442
Lead: (Kimco) KIMCO - Sharyland Towne Crossing,Lead,26.1971765,-98.2842586
Lead: (Kimco) KIMCO - Shawan Plaza,Lead,39.4949077,-76.6485712
Lead: (Kimco) KIMCO - Shoppes at Bears Path,Lead,32.2577418,-110.8038133
Lead: (Kimco) KIMCO - Shoppes at Deerfield,Lead,26.3173841,-80.1579024
Lead: (Kimco) KIMCO - Shoppes at Memorial Villages,Lead,29.7855491,-95.4831062
Lead: (Kimco) KIMCO - Shoprite S.C.,Lead,40.953583,-73.858846
Lead: (Kimco) KIMCO - Shops at Baybrook,Lead,29.5404678,-95.1398613
Lead: (Kimco) KIMCO - Shops at Hilshire Village,Lead,29.7966814,-95.4864653
Lead: (Kimco) KIMCO - Shops at Kirby Drive,Lead,29.6923744,-95.4142485
Lead: (Kimco) KIMCO - Shops at Santa Barbara,Lead,26.6095669,-81.9735739
Lead: (Kimco) KIMCO - Shops at Three Corners,Lead,29.6904361,-95.4146154
Lead: (Kimco) KIMCO - Shrewsbury Square S.C.,Lead,,
Lead: (Kimco) KIMCO - Silver Creek Plaza,Lead,37.3089605,-121.8103176
Lead: (Kimco) KIMCO - Silverdale Plaza,Lead,47.6521359,-122.6889875
Lead: (Kimco) KIMCO - Six Forks Station S.C.,Lead,35.8992035,-78.6545491
Lead: (Kimco) KIMCO - Skokie Pointe,Lead,42.0524197,-87.7455131
Lead: (Kimco) KIMCO - Smithtown Plaza,Lead,40.8610905,-73.1299436
Lead: (Kimco) KIMCO - Smoketown Station,Lead,38.6502154,-77.3002659
Lead: (Kimco) KIMCO - Snowden Square S.C.,Lead,39.18103,-76.82014
Lead: (Kimco) KIMCO - Sodo S.C.,Lead,28.5164222,-81.3789394
Lead: (Kimco) KIMCO - South Hill Center,Lead,47.1528384,-122.2938895
Lead: (Kimco) KIMCO - South Miami S.C.,Lead,25.6999563,-80.2938888
Lead: (Kimco) KIMCO - South Napa Market Place,Lead,38.2812374,-122.2765619
Lead: (Kimco) KIMCO - South Pasadena S.C.,Lead,27.7572309,-82.7342359
Lead: (Kimco) KIMCO - Southampton Center,Lead,,
Lead: (Kimco) KIMCO - Southfield Plaza,Lead,42.5087832,-83.2189085
Lead: (Kimco) KIMCO - Southgate SC,Lead,,
Lead: (Kimco) KIMCO - Sparks Mercantile,Lead,39.5550371,-119.7541256
Lead: (Kimco) KIMCO - Spring Meadows Place,Lead,41.6133846,-83.699589
Lead: (Kimco) KIMCO - Springfield S.C.,Lead,39.9360905,-75.3508283
Lead: (Kimco) KIMCO - Squaw Peak Plaza,Lead,33.5373671,-112.0464379
Lead: (Kimco) KIMCO - St. Andrews Center,Lead,32.7817371,-79.9902929
Lead: (Kimco) KIMCO - Stafford Marketplace,Lead,38.4717732,-77.4082637
Lead: (Kimco) KIMCO - Stanford Ranch,Lead,38.7829093,-121.2681198
Lead: (Kimco) KIMCO - Starr Plaza,Lead,26.3705243,-98.7994252
Lead: (Kimco) KIMCO - Stevens Creek Central,Lead,37.3221369,-121.9951121
Lead: (Kimco) KIMCO - Stevens Ranch,Lead,32.2590738,-97.6558426
Lead: (Kimco) KIMCO - Stonebridge at Potomac Town Center,Lead,38.6291755,-77.2880029
Lead: (Kimco) KIMCO - Stonehenge Market,Lead,35.8869039,-78.6779381
Lead: (Kimco) KIMCO - Stony Point Plaza,Lead,38.4289025,-122.7429536
Lead: (Kimco) KIMCO - Stop & Shop,Lead,,
Lead: (Kimco) KIMCO - Suburban Square and Coulter Avenue,Lead,40.0088589,-75.2896139
Lead: (Kimco) KIMCO - Sunset Point 19 S.C.,Lead,27.9879953,-82.7325568
Lead: (Kimco) KIMCO - Sunset Valley Marketfair,Lead,30.227699,-97.822673
Lead: (Kimco) KIMCO - Sycamore Plaza,Lead,33.848632,-117.8898378
Lead: (Kimco) KIMCO - Syosset Corners,Lead,40.8228435,-73.5014658
Lead: (Kimco) KIMCO - Syosset S.C.,Lead,40.8241506,-73.501236
Lead: (Kimco) KIMCO - Tamiami Trail Shops,Lead,25.7596306,-80.4181665
Lead: (Kimco) KIMCO - Tanasbourne Village,Lead,45.5364272,-122.8686541
Lead: (Kimco) KIMCO - The Boulevard,Lead,,
Lead: (Kimco) KIMCO - The Centre at Copperfield,Lead,29.8810317,-95.6436521
Lead: (Kimco) KIMCO - The Centre at Post Oak,Lead,29.7421763,-95.4623737
Lead: (Kimco) KIMCO - The Commons at Dexter Lake,Lead,35.1708488,-89.7954096
Lead: (Kimco) KIMCO - The Crossings,Lead,39.1031694,-76.8005131
Lead: (Kimco) KIMCO - The Crossroads,Lead,28.9971759,-81.303836
Lead: (Kimco) KIMCO - The District @ Tustin Legacy,Lead,33.6979539,-117.8283326
Lead: (Kimco) KIMCO - The Fountains at Arbor Lakes,Lead,45.0932183,-93.4264022
Lead: (Kimco) KIMCO - The Gardens at Great Neck,Lead,40.7859167,-73.7277158
Lead: (Kimco) KIMCO - The Green Cove Plaza,Lead,40.8084399,-73.629331
Lead: (Kimco) KIMCO - The Marketplace,Lead,,
Lead: (Kimco) KIMCO - The Marketplace at Dr Phillips,Lead,28.4518191,-81.4896821
Lead: (Kimco) KIMCO - The Marketplace at Factoria,Lead,47.5746088,-122.1719914
Lead: (Kimco) KIMCO - The Plaza at Citrus Park,Lead,28.0640257,-82.5750203
Lead: (Kimco) KIMCO - The Shoppes at Caveness Farms,Lead,,
Lead: (Kimco) KIMCO - The Shoppes at Wilde Lake,Lead,39.2206504,-76.8757986
Lead: (Kimco) KIMCO - The Shoppes at Wilderness Oaks,Lead,29.4251905,-98.4945922
Lead: (Kimco) KIMCO - The Shops at District Heights,Lead,38.8638432,-76.915942
Lead: (Kimco) KIMCO - The Shops at Old Orchard,Lead,42.5420186,-83.3598471
Lead: (Kimco) KIMCO - The Shops on Lane Avenue,Lead,40.0065964,-83.0541483
Lead: (Kimco) KIMCO - The Summit at Scottsdale,Lead,33.7799269,-111.9231851
Lead: (Kimco) KIMCO - The Whittaker,Lead,47.5606353,-122.3821534
Lead: (Kimco) KIMCO - Timonium Crossing,Lead,39.4399741,-76.6269869
Lead: (Kimco) KIMCO - Timonium Square,Lead,39.443439,-76.6259264
Lead: (Kimco) KIMCO - TJ Maxx Plaza,Lead,25.7001117,-80.3826238
Lead: (Kimco) KIMCO - Tomball Crossing,Lead,30.0097124,-95.5905304
Lead: (Kimco) KIMCO - Tomball Marketplace,Lead,30.0861181,-95.6389766
Lead: (Kimco) KIMCO - Torrance Promenade,Lead,33.8530806,-118.3521981
Lead: (Kimco) KIMCO - Town & Country Crossing,Lead,,
Lead: (Kimco) KIMCO - Township Line S.C.,Lead,39.9684137,-75.2983962
Lead: (Kimco) KIMCO - Towson Place,Lead,39.3891668,-76.5487895
Lead: (Kimco) KIMCO - Tradewinds S.C.,Lead,,
Lead: (Kimco) KIMCO - Trenton Crossing - North McAllen,Lead,26.2727858,-98.2154712
Lead: (Kimco) KIMCO - Tri-City Plaza,Lead,27.9179981,-82.7327754
Lead: (Kimco) KIMCO - Troy Marketplace,Lead,42.562508,-83.1322282
Lead: (Kimco) KIMCO - Truckee Crossroads,Lead,39.3194261,-120.2086189
Lead: (Kimco) KIMCO - Trujillo Alto Plaza,Lead,18.3697939,-66.0172365
Lead: (Kimco) KIMCO - Turnpike Plaza,Lead,40.4691157,-74.4087381
Lead: (Kimco) KIMCO - Tustin Heights S.C.,Lead,33.7470899,-117.8097091
Lead: (Kimco) KIMCO - Tuttlebee Plaza,Lead,27.300354,-82.5155812
Lead: (Kimco) KIMCO - Tyvola Square,Lead,35.1627897,-80.8747991
Lead: (Kimco) KIMCO - Tyvola Square II,Lead,35.1627897,-80.8747991
Lead: (Kimco) KIMCO - Union Crescent Plaza,Lead,40.7167425,-74.2861533
Lead: (Kimco) KIMCO - University Town Center,Lead,,
Lead: (Kimco) KIMCO - Vail Ranch Plaza,Lead,33.4809799,-117.0920028
Lead: (Kimco) KIMCO - Vermont-Slauson S.C.,Lead,33.9876543,-118.2908772
Lead: (Kimco) KIMCO - Veterans Memorial Plaza,Lead,40.6387509,-73.7012099
Lead: (Kimco) KIMCO - Village Center West,Lead,39.543087,-104.9443879
Lead: (Kimco) KIMCO - Village Commons S.C.,Lead,26.7144241,-80.1016777
Lead: (Kimco) KIMCO - Village Crossroads,Lead,33.5964012,-111.9786605
Lead: (Kimco) KIMCO - Village Green Center,Lead,26.6379466,-80.2054641
Lead: (Kimco) KIMCO - Village Lakes S.C.,Lead,28.1909122,-82.4592649
Lead: (Kimco) KIMCO - Village on the Park,Lead,39.6731131,-104.8676023
Lead: (Kimco) KIMCO - Village Plaza at Bunker Hill,Lead,29.7873725,-95.5329131
Lead: (Kimco) KIMCO - Village Shoppes of Canton,Lead,42.1395311,-71.1462399
Lead: (Kimco) KIMCO - Villages at Urbana,Lead,39.3301247,-77.3526429
Lead: (Kimco) KIMCO - Vinnin Square Plaza,Lead,42.4815793,-70.9015608
Lead: (Kimco) KIMCO - Vista Balboa Center,Lead,32.8206259,-117.1578002
Lead: (Kimco) KIMCO - Vizcaya Square,Lead,26.134728,-80.2888373
Lead: (Kimco) KIMCO - Wakefield Commons,Lead,35.9430834,-78.5427235
Lead: (Kimco) KIMCO - Wakefield Crossings,Lead,,
Lead: (Kimco) KIMCO - Washington St. Plaza,Lead,42.343102,-71.1409945
Lead: (Kimco) KIMCO - Washington St. S.C.,Lead,42.5041361,-71.1249843
Lead: (Kimco) KIMCO - Waverly Plaza,Lead,40.7781344,-73.0331826
Lead: (Kimco) KIMCO - Wayne Plaza,Lead,39.9157796,-77.6515613
Lead: (Kimco) KIMCO - Webster Square,Lead,42.2513645,-71.8512036
Lead: (Kimco) KIMCO - Wellington Green Commons,Lead,26.641296,-80.2061986
Lead: (Kimco) KIMCO - West 38th Street S.C.,Lead,39.7689136,-105.019854
Lead: (Kimco) KIMCO - West Alex,Lead,38.8417699,-77.1075772
Lead: (Kimco) KIMCO - West Broward S.C.,Lead,26.1216256,-80.2012489
Lead: (Kimco) KIMCO - West Farm S.C.,Lead,41.715821,-72.7641908
Lead: (Kimco) KIMCO - West Oaks I & II S.C.,Lead,42.493813,-83.4798619
Lead: (Kimco) KIMCO - Westchase S.C.,Lead,29.7348965,-95.5706292
Lead: (Kimco) KIMCO - Western Plaza,Lead,18.2428292,-67.1617007
Lead: (Kimco) KIMCO - Westgate Plaza,Lead,32.9425046,-97.1024665
Lead: (Kimco) KIMCO - Westhill Village,Lead,29.7363791,-95.5031
Lead: (Kimco) KIMCO - Westlake S.C.,Lead,37.6991007,-122.4829582
Lead: (Kimco) KIMCO - Westminster Center,Lead,33.7613281,-118.0129364
Lead: (Kimco) KIMCO - Westmont Plaza,Lead,39.9010383,-75.0630083
Lead: (Kimco) KIMCO - Westover Square,Lead,32.7397108,-97.4202136
Lead: (Kimco) KIMCO - Westwood Plaza,Lead,,
Lead: (Kimco) KIMCO - Wexford Plaza,Lead,40.6125512,-80.0538473
Lead: (Kimco) KIMCO - White Plains S.C.,Lead,41.0303808,-73.7662197
Lead: (Kimco) KIMCO - Whitehall Center,Lead,40.3639794,-79.9674548
Lead: (Kimco) KIMCO - Whiteland Town Center,Lead,40.0287149,-75.6318503
Lead: (Kimco) KIMCO - Whittwood Town Center,Lead,33.9434399,-117.995657
Lead: (Kimco) KIMCO - Whole Foods at Wynnewood,Lead,40.0020774,-75.2755694
Lead: (Kimco) KIMCO - Wilkens Beltway Plaza,Lead,39.2657323,-76.6992584
Lead: (Kimco) KIMCO - Willowbrook Plaza,Lead,40.8866393,-74.2523524
Lead: (Kimco) KIMCO - Wilton Campus,Lead,41.1897939,-73.4315614
Lead: (Kimco) KIMCO - Wilton River Park S.C.,Lead,41.191232,-73.4311455
Lead: (Kimco) KIMCO - Winchester Center,Lead,,
Lead: (Kimco) KIMCO - Winn Dixie - Miami,Lead,,
Lead: (Kimco) KIMCO - Winter Park Corners,Lead,28.6012533,-81.326289
Lead: (Kimco) KIMCO - Woodbridge S.C.,Lead,29.6480374,-95.6494487
Lead: (Kimco) KIMCO - Woodbury Common,Lead,40.8168216,-73.4663665
Lead: (Kimco) KIMCO - Woodbury Lakes,Lead,44.9466643,-92.9246167
Lead: (Kimco) KIMCO - Woodlawn Marketplace,Lead,35.1752641,-80.8775185
Lead: (Kimco) KIMCO - Woodmen Valley S.C.,Lead,38.9399925,-104.840811
Lead: (Kimco) KIMCO - Woodruff S.C.,Lead,,
Lead: (Kimco) KIMCO - Woodstock Square,Lead,34.0845354,-84.5218912
Lead: (Kimco) KIMCO - York Road Plaza,Lead,39.3726703,-76.6106582
"Lead: (LAS-001) 2784 E Charleston Blvd, Las Vegas, NV 89104, USA",Lead,36.1590727,-115.1117648
"Lead: (LAS-002) 1225 S Commerce St, Las Vegas, NV 89102, USA",Lead,36.1565865,-115.1546049
"Lead: (LAX-002) 1230 W Olympic Blvd, Los Angeles, CA 90015, USA",Lead,34.0470154,-118.2699484
"Lead: (LAX-003) 718 E 9th St, Los Angeles, CA 90021, USA",Lead,34.0366579,-118.2500642
"Lead: (LAX-004) 11420 Cumpston Street, North Hollywood, Los Angeles, CA 91601, USA",Lead,34.1694707,-118.3796176
"Lead: (LAX-005) 19231 Victory Blvd, Reseda, Los Angeles, CA 91335, USA",Lead,34.1872783,-118.5524854
"Lead: (LAX-007) 11059 Ventura Blvd, Studio City, CA 91604, USA",Lead,34.1411422,-118.3715913
"Lead: (LAX-011) 922 S Los Angeles St, Los Angeles, L A, CA 90015, USA",Lead,34.0399869,-118.2545013
"Lead: (LAX-012) 1148 South Broadway, Los Angeles, CA 90015, USA",Lead,34.0385454,-118.2595413
"Lead: (LAX-014) 3824 S Figueroa St, Los Angeles, CA 90037, USA",Lead,34.0149971,-118.2825272
"Lead: (LAX-017) 3560 S La Cienega Blvd, Los Angeles, CA 90016, USA",Lead,34.0228686,-118.3719003
"Lead: (LAX-018) 1282 N Fairfax Ave, West Hollywood, CA 90046, USA",Lead,34.0941496,-118.361342
"Lead: (LAX-021) 7038 Sunset Boulevard, Los Angeles, CA 90028, USA",Lead,34.0977882,-118.3427756
"Lead: (LAX-025) 21534 Devonshire Street, Chatsworth, CA 91311, USA",Lead,34.2567279,-118.599993
"Lead: (LAX-026) 2055 S Sepulveda Blvd, Los Angeles, CA 90025, USA",Lead,34.0417544,-118.4396931
"Lead: (LAX-027) 14058 Ventura Blvd, Sherman Oaks, CA 91423, USA",Lead,34.1491369,-118.4391964
"Lead: (LAX-028) 491 N Allen Ave, Pasadena, CA 91106, USA",Lead,34.1546863,-118.113581
"Lead: (LAX-029) 6341 Arizona Cir, Los Angeles, CA 90045, USA",Lead,33.9809881,-118.3975833
"Lead: (LAX-030) 4067 W Pico Blvd, Los Angeles, CA 90019, USA",Lead,34.047775,-118.3241134
"Lead: (LAX-032) 3644 11th Ave, Los Angeles, CA 90018, USA",Lead,34.0216186,-118.3290888
"Lead: (LAX-033) 2901 W Jefferson Blvd, Los Angeles, CA 90018, USA",Lead,34.025893,-118.327343
"Lead: (LAX-036) 2153 W Washington Blvd, Los Angeles, CA 90018, USA",Lead,34.0401981,-118.3078153
"Lead: (LAX-037) 200 South La Brea Ave, Los Angeles, CA 90036, USA",Lead,34.0706376,-118.3438484
"Lead: (LAX-038) 13007 Sherman Way, North Hollywood, CA 91605, USA",Lead,34.202635,-118.4169689
"Lead: (LAX-039) 1323 5th St, Santa Monica, CA 90401, USA",Lead,34.0182525,-118.4949269
"Lead: (LAX-040) 1338 5th St, Santa Monica, CA 90401, USA",Lead,34.0176849,-118.4950029
"Lead: (LAX-044) 2400 Barranca Pkwy, Irvine, CA 92606, USA",Lead,33.6963546,-117.83087
"Lead: (LAX-051) 248 Pico Blvd, Santa Monica, CA 90405, USA",Lead,34.008632,-118.488149
"Lead: (LAX-052) 10619 Prairie Ave, Inglewood, CA 90303, USA",Lead,33.9393847,-118.344195
"Lead: (LAX-053) 4911 W Century Blvd, Inglewood, CA 90304, USA",Lead,33.9457262,-118.3639717
"Lead: (LAX-055) 18826 Ventura Blvd, Tarzana, CA 91356, USA",Lead,34.1715716,-118.5439122
"Lead: (LAX-057) 515 West 27th Street, Los Angeles, CA 90007, USA",Lead,34.0271218,-118.2757077
"Lead: (LAX-059) 950 E 60th St, Los Angeles, CA 90001, USA",Lead,33.9853356,-118.2580442
"Lead: (LAX-061) 5741 W Adams Blvd, Los Angeles, CA 90016, USA",Lead,34.0326666,-118.3683779
"Lead: (LAX-062) 212 Evergreen St, Burbank, CA 91505, USA",Lead,34.1531241,-118.3453949
"Lead: (LAX-063) 3357 S Bristol St, Santa Ana, CA 92704, USA",Lead,33.7006754,-117.8842993
"Lead: (LAX-064) 2732 S Central Ave, Los Angeles, CA 90011, USA",Lead,34.016775,-118.2553862
"Lead: (LAX-065) 3030 Sawtelle Blvd, Los Angeles, CA 90066, USA",Lead,34.025707,-118.4306355
"Lead: (LAX-066) 12500 Magnolia Boulevard, Valley Village, CA, USA",Lead,34.1646888,-118.405487
"Lead: (LAX-067) 635 S Vermont Ave, Los Angeles, CA 90005, USA",Lead,34.0628029,-118.2919678
"Lead: (LAX-072) 6130 S Avalon Blvd, Los Angeles, CA 90003, USA",Lead,33.983322,-118.2649157
"Lead: (LAX-073) 3519 West Commonwealth Avenue, Fullerton, CA, USA",Lead,33.8708881,-117.9744602
"Lead: (LAX-074) 1517 W Adams Blvd, Los Angeles, CA, USA",Lead,34.0331154,-118.2949134
"Lead: (LAX-800) 3964 S Figueroa St, Los Angeles, CA 90037, USA",Lead,34.012123,-118.282354
"Lead: (LAX-801) 730 South Raymond Avenue, Pasadena, CA 91105, USA",Lead,34.1331184,-118.1485722
"Lead: (LAX-999) 1300 Exposition Blvd, Los Angeles, CA 90018, USA",Lead,34.0179283,-118.3005145
"Lead: (LAX-999) 2511 West 6th Street, Los Angeles, CA, USA",Lead,34.0618434,-118.2793862
"Lead: (LAX-999) 4378 S Main St, Los Angeles, CA, USA",Lead,34.0040222,-118.2737875
"Lead: (LAX-999) 4419 Van Nuys Blvd, Sherman Oaks, CA 91403, USA",Lead,34.1518141,-118.4496519
"Lead: (Lowes) 1001 W Oakland Park Blvd, Wilton Manors, FL 33311",Lead,26.1683853,-80.1555701
"Lead: (Lowes) 130 N University Dr, Pembroke Pines, FL 33024",Lead,26.0102144,-80.2509534
"Lead: (Lowes) 17460 NW 57th Ave, Hialeah, FL 33015",Lead,25.9316095,-80.2957502
"Lead: (Lowes) 6600 Dykes Rd, Southwest Ranches, FL 33331",Lead,26.0331934,-80.3592208
"Lead: (MEM-001) 201 Adams Ave, Memphis, TN 38103, USA",Lead,35.1466948,-90.0485411
"Lead: (MIA-001) 201 SW 2nd Ave, Miami, FL 33130, USA",Lead,25.7722553,-80.1973683
"Lead: (MIA-038) 116 W Flagler St, Miami, FL 33130, USA",Lead,25.7739265,-80.1964579
"Lead: (MIA-004) 609 Brickell Ave, Miami, FL 33131, USA",Lead,25.7676664,-80.1895552
"Lead: (MIA-006) 127 NE 11th St, Miami, FL 33132, USA",Lead,25.78502,-80.191548
"Lead: (MIA-096) 12960 Southwest 89th Avenue, Miami, FL 33176, USA",Lead,25.6491331,-80.3385796
"Lead: (MIA-076) 1341 NW 22nd St, Miami, FL 33142, USA",Lead,25.7978801,-80.2184663
"Lead: (MIA-034) 1420 Northwest 13th Terrace, Miami, FL 33125, USA",Lead,25.7868544,-80.2193158
"Lead: (MIA-017) 15 NE 3rd St, Fort Lauderdale, FL 33301, USA",Lead,26.1254688,-80.1429892
"Lead: (MIA-020) 850 NW 23rd St, Miami, FL 33127, USA",Lead,25.798593,-80.210115
"Lead: (MIA-021) 150 NE 19th St, Miami, FL 33132, USA",Lead,25.7941982,-80.1929115
"Lead: (MIA-022) 2577 SW 37th Ave, Miami, FL 33133, USA",Lead,25.7433075,-80.2540986
"Lead: (MIA-025) 204 SW 3rd St, Miami, FL 33130, USA",Lead,25.771033,-80.1986517
"Lead: (MIA-033) 200 NE 62nd St, Miami, FL 33138, USA",Lead,25.832699,-80.1916959
"Lead: (MIA-014) 2030 NW 7th Ave, Miami, FL 33127, USA",Lead,25.7957824,-80.2073232
"Lead: (MIA-092) 2250 NW 2nd Ave, Miami, FL 33127, USA",Lead,25.7986643,-80.1999552
"Lead: (MIA-027) 2417 N Miami Ave, Miami, FL 33127, USA",Lead,25.80021,-80.1947
"Lead: (MIA-058) 2828 Northeast 9th Court, Fort Lauderdale, FL 33304, USA",Lead,26.1372198,-80.107252
"Lead: (MIA-011) 2900 NW 7th Ave, Miami, FL 33127, USA",Lead,25.8038695,-80.2074963
"Lead: (MIA-044) 300 NW 29th St, Miami, FL 33127, USA",Lead,25.8035703,-80.2013486
"Lead: (MIA-032) 3399 NW S River Dr, Miami, FL 33142, USA",Lead,25.799339,-80.2506403
"Lead: (MIA-040) 601 Brickell Key Dr, Miami, FL 33131, USA",Lead,25.7669144,-80.1861349
"Lead: (MIA-048) 3414 NW 7th Ave, Miami, FL 33127, USA",Lead,25.8085964,-80.2076087
"Lead: (MIA-050) 347 Don Shula Dr, Miami Gardens, FL, USA",Lead,25.957949,-80.239287
"Lead: (MIA-045) 1690 NW N River Dr, Miami, FL 33125, USA",Lead,25.786199,-80.222564
"Lead: (MIA-089) 4030 N Miami Ave, Miami, FL 33127, USA",Lead,25.8139643,-80.1957471
"Lead: (MIA-043) 41 Northwest 20th Street, Miami, FL, USA",Lead,25.7957928,-80.195919
"Lead: (MIA-035) 4220 NW 2nd Ave, Miami, FL 33127, USA",Lead,25.8153085,-80.1998407
"Lead: (MIA-054) 511 Northeast 15th Street, Miami, FL, USA",Lead,25.7898978,-80.1867215
"Lead: (MIA-056) 3117 NW 7th Ave, Miami, FL 33127, USA",Lead,25.805705,-80.2071536
"Lead: (MIA-057) 5600 NW 7th St, Miami, FL 33126, USA",Lead,25.7777254,-80.28641
"Lead: (MIA-010) 4480 NW 2nd Ave, Miami, FL 33127, USA",Lead,25.8166759,-80.1999446
"Lead: (MIA-109) 458 NW 7th St, Miami, FL 33136, USA",Lead,25.7802951,-80.2025047
"Lead: (MIA-063) 1789 Biscayne Blvd, Miami, FL 33132, USA",Lead,25.7933366,-80.1888033
"Lead: (MIA-064) 152 NW 8th St, Miami, FL 33136, USA",Lead,25.781232,-80.197418
"Lead: (MIA-065) 2240 SW 8th St, Miami, FL 33135, USA",Lead,25.765116,-80.23164
"Lead: (MIA-066) 6850 Southwest 81st Terrace, Miami, FL 33143, USA",Lead,25.6944146,-80.3040743
"Lead: (MIA-053) 5225 Collins Ave, Miami Beach, FL 33140, USA",Lead,25.8299932,-80.1213544
"Lead: (MIA-070) 821 NE 79th St, Miami, FL 33138, USA",Lead,25.8481604,-80.179859
"Lead: (MIA-108) 5966 South Dixie Highway, Miami, FL 33143, USA",Lead,25.7026359,-80.2907965
"Lead: (MIA-085) 521 NE 4th Ave, Fort Lauderdale, FL 33301, USA",Lead,26.1289955,-80.1399822
"Lead: (MIA-088) 12210 Biscayne Blvd, North Miami, FL 33181, USA",Lead,25.8888338,-80.1646257
"Lead: (MIA-069) 611 NE 83rd Ln, Miami, FL 33138, USA",Lead,25.852695,-80.184591
"Lead: (MIA-090) 650 Northwest 8th Street, Miami, FL 33136, USA",Lead,25.7810449,-80.2054279
"Lead: (MIA-093) 10823 Biscayne Blvd, Miami, FL 33161, USA",Lead,25.8756026,-80.1693912
"Lead: (MIA-094) 8659 Southwest 124th Avenue, Miami, FL 33183, USA",Lead,25.6880241,-80.3935517
"Lead: (MIA-095) 12004 Southwest 88th Street, Miami, FL 33186, USA",Lead,25.6856019,-80.3912208
"Lead: (MIA-037) 626 S Miami Ave, Miami, FL 33130, USA",Lead,25.7678249,-80.1935872
"Lead: (MIA-097) 9 Southeast 6th Street, Miami, FL 33131, USA",Lead,25.768587,-80.192776
"Lead: (MIA-099) 244 Miracle Mile, Coral Gables, FL 33134, USA",Lead,25.7492712,-80.259708
"Lead: (MIA-100) 1121 N Dixie Hwy, West Palm Beach, FL 33401, USA",Lead,26.723279,-80.0534969
"Lead: (MIA-001) 6743 Main St, Miami Lakes, FL 33014, USA",Lead,25.9135103,-80.3100506
"Lead: (MIA-106) 533 NE 83rd St, Miami, FL 33138, USA",Lead,25.8516756,-80.1860021
"Lead: (MIA-103) 7050 Northeast 2nd Avenue, Miami, FL 33138, U.S.",Lead,25.839987,-80.192783
"Lead: (MIA-036) 798 NW 62nd St, Miami, FL 33150, USA",Lead,25.8319498,-80.2102773
"Lead: (MIA-060) 8281 NE 1st Pl, Miami, FL 33138, USA",Lead,25.8510937,-80.1938718
"Lead: (MIA-110) 9290 NW 22nd Ave, Miami, FL 33147, USA",Lead,25.8584506,-80.2342879
"Lead: (MIA-111) 3452 N Miami Ave, Miami, FL 33127, USA",Lead,25.8090631,-80.1954217
"Lead: (MIA-800) 3010 Collins Ave, Miami Beach, FL 33140, USA",Lead,25.8062608,-80.124757
"Lead: (MIN-001) 519 Cedar Avenue, Minneapolis, MN 55414, USA",Lead,44.9683645,-93.2469683
"Lead: (MIN-002) 429 Wabasha St S, Saint Paul, MN 55107, USA",Lead,44.932959,-93.0845545
"Lead: (MIN-010) 501 S 7th St, Minneapolis, MN 55415, USA",Lead,44.9735476,-93.2652806
"Lead: (MIN-012) 217 W Broadway Ave, Minneapolis, MN 55411, USA",Lead,44.998842,-93.280954
"Lead: (MIN-013) 281 E 8th St, Saint Paul, MN 55101, USA",Lead,44.9522736,-93.0882167
"Lead: (MIN-014) 500 South 6th St, Minneapolis, MN 55415, USA",Lead,44.9752219,-93.2635287
"Lead: (MIN-016) 1717 Central Ave NE, Minneapolis, MN 55413, USA",Lead,45.0055555,-93.2470165
"Lead: (MIN-018) 424 Harrison St NE, Minneapolis, MN 55413, USA",Lead,44.99434,-93.247609
"Lead: (MIN-020) 26 E Prince St, St Paul, MN 55101, USA",Lead,44.9506854,-93.0817625
"Lead: (MIN-021) 245 7th St W, St Paul, MN 55102, USA",Lead,44.9432477,-93.1052902
"Lead: (MIN-024) 318 S 3rd St, Minneapolis, MN 55415, USA",Lead,44.978965,-93.263638
"Lead: (MIN-025) 228 S 12th St, Minneapolis, MN 55403, USA",Lead,44.9707187,-93.2723321
"Lead: (MIN-028) 1919 Charles Avenue, St Paul, MN 55104, USA",Lead,44.9587651,-93.1808229
"Lead: (MIN-029) 711 Bradley St, St Paul, MN 55130, USA",Lead,44.9627314,-93.0793256
"Lead: (MIN-031) 1545 7th St W, St Paul, MN 55102, USA",Lead,44.9183096,-93.1412604
"Lead: (MIN-034) 321 Chestnut St, Saint Paul, MN 55102, USA",Lead,44.9430717,-93.1039652
"Lead: (MIN-036) 609 S 3rd St, Minneapolis, MN 55415, USA",Lead,44.9768079,-93.2602431
"Lead: (MIN-800) 393 E Kellogg Blvd, St Paul, MN 55106, USA",Lead,44.9537738,-93.0728689
"Lead: (MKE-001) 191 W Michigan St, Milwaukee, WI 53203, USA",Lead,43.037009,-87.912549
"Lead: (MON-001) 208 Rue Migneron, Saint-Laurent, QC H4T 1Y7, Canada",Lead,45.4879938,-73.6919412
"Lead: (MON-002) 1010 Sherbrooke St W, Montreal, QC H3A 2R7, Canada",Lead,45.5021783,-73.5756178
"Lead: (MON-007) RenÃ©-LÃ©vesque Blvd W, MontrÃ©al, QC H2Z 1A1, Canada",Lead,45.5020684,-73.5619479
"Lead: (MON-009) 260 Rue Gary-Carter, MontrÃ©al, QC H2R 2V7, Canada",Lead,45.5327475,-73.6241552
"Lead: (MON-888) 1 Pl. de la Belle-Rive, Laval, QC H7V 1B1, Canada",Lead,45.5372151,-73.7262721
"Lead: (MON-888) 250 Rue Gary-Carter, Montreal, QC H2R 0B2, Canada",Lead,45.5329836,-73.6239596
"Lead: (MON-999) 1305 Rue De Montmorency, Montreal, QC H3K 2G3, Canada",Lead,45.4857395,-73.5607275
"Lead: (MON-999) 4035 St Ambroise St, Montreal, QC H4C 2E1, Canada",Lead,45.4757883,-73.5812974
"Lead: (MON-999) 55 Rue Saint- Viateur O, Montreal, QC H2T 2K9, Canada",Lead,45.5252034,-73.5998066
"Lead: (MON-999) 7 RenÃ©-LÃ©vesque Blvd W, Montreal, QC H2Z 1A1, Canada",Lead,45.5012859,-73.5550144
"Lead: (NSH-002) 607 14th Ave N, Nashville, TN 37203, USA",Lead,36.1635071,-86.7967659
"Lead: (NSH-010) 2605 Lebanon Pike, Nashville, TN 37214, USA",Lead,36.1695827,-86.6754701
"Lead: (NSH-015) 2138 Utopia Avenue, Nashville, TN 37211, USA",Lead,36.1263926,-86.7561509
"Lead: (NSH-016) 3004 Ambrose Ave, Nashville, TN 37207, USA",Lead,36.205476,-86.7479861
"Lead: (NSH-017) 5605 Ohio Ave, Nashville, TN 37209, USA",Lead,36.1659413,-86.8562354
"Lead: (NSH-021) 1201 8th Avenue South, Nashville, TN 37203, USA",Lead,36.1416121,-86.7790454
"Lead: (NSH-031) 229 Donelson Pike, Nashville, TN 37214, USA",Lead,36.1598635,-86.6635975
"Lead: (NYC-001) 53-02 11th St, Long Island City, NY 11101, USA",Lead,40.740258,-73.9526844
"Lead: (NYC-002) 41 W 17th St, New York, NY 10011, USA",Lead,40.7389589,-73.9943038
"Lead: (NYC-005) 758 Humboldt St, Brooklyn, NY 11222, USA",Lead,40.7281242,-73.9455801
"Lead: (NYC-006) 320 32nd St, Union City, NJ 07087, USA",Lead,40.7710575,-74.0280699
"Lead: (NYC-012) 42-02 23rd St, Queens, NY, 11101, USA",Lead,40.7508404,-73.9430084
"Lead: (NYC-013) 250 6th St, Brooklyn, NY 11215, USA",Lead,40.672267,-73.987967
"Lead: (NYC-014) 280 Richardson St, Brooklyn, NY 11222, USA",Lead,40.7194375,-73.939843
"Lead: (NYC-028) 14 White Street, New York, NY 10013, USA",Lead,40.719275,-74.0054123
"Lead: (NYC-050) 69 Clinton St, New York, NY 10002, USA",Lead,40.7193634,-73.985112
"Lead: (NYC-052) 48-14 35th St, Queens, Long Island City, NY 11101, USA",Lead,40.7399319,-73.930853
"Lead: (NYC-060) 449 Broadway, Brooklyn, NY 11211, USA",Lead,40.7066727,-73.9522219
"Lead: (NYC-061) 273 West 131st Street, New York, NY 10027, USA",Lead,40.8141875,-73.9479541
"Lead: (NYC-072) 196-26 Woodhull Ave, Jamaica, NY 11423, USA",Lead,40.7131632,-73.7625869
"Lead: (NYC-073) 150 Snediker Ave, Brooklyn, NY 11207, USA",Lead,40.67174,-73.901892
"Lead: (NYC-088) 2221 46th St, Astoria, NY 11105, USA",Lead,40.7695843,-73.9030417
"Lead: (NYC-101) 2458 Webster Ave, Bronx, NY 10458, USA",Lead,40.8599318,-73.8929168
"Lead: (NYC-102) 2257 1st Ave., New York, NY 10029, USA",Lead,40.7959682,-73.9357547
"Lead: (NYC-103) 964 Amsterdam Ave, New York, NY 10025, USA",Lead,40.8014793,-73.9653026
"Lead: (NYC-105) 2451 46th St, Astoria, Queens, NY 11103, USA",Lead,40.7667242,-73.9057974
"Lead: (NYC-801) 353 Berry St, Brooklyn, NY 11249, USA",Lead,40.7110421,-73.9651927
"Lead: (NYC-802) 475 Marcy Avenue, Brooklyn, NY 11206, USA",Lead,40.69956,-73.948607
"Lead: (NYC-803) 810 Gravesend Neck Rd, Brooklyn, NY 11223, USA",Lead,40.5941216,-73.9616521
"Lead: (ONT-004) 702 Foothill Blvd, Rialto, CA 92376, USA",Lead,34.1070734,-117.3569652
"Lead: (ORL-001) 170 East Washington Street, Orlando, FL 32801, USA",Lead,28.543399,-81.3764209
"Lead: (ORL-002) 417 W Robinson St, Orlando, FL 32801, USA",Lead,28.5459043,-81.38425
"Lead: (ORL-004) 5780 Major Blvd, Orlando, FL 32819, USA",Lead,28.4794941,-81.4574236
"Lead: (ORL-005) 8231 Vineland Ave, Orlando, FL 32821, USA",Lead,28.3906332,-81.4915049
"Lead: (ORL-006) 8001 South Orange Blossom Trail, Orlando, FL 32809, USA",Lead,28.4467196,-81.3952716
"Lead: (ORL-008) 2933 East Colonial Drive, Orlando, FL 32803, USA",Lead,28.5544362,-81.3471531
"Lead: (ORL-011) 11000 Westwood Blvd, Orlando, FL 32821, USA",Lead,28.4059542,-81.4768576
"Lead: (OTT-001) 2197 Riverside Drive, Ottawa, ON K1H 8K5, Canada",Lead,45.3890846,-75.6763446
"Lead: (OTT-003) 370 Catherine St, Ottawa, ON K1R 5T5, Canada",Lead,45.406855,-75.6975168
"Lead: (OTT-004) 1536 Scott St, Ottawa, ON K1Y 2N5, Canada",Lead,45.4043092,-75.7323286
"Lead: (OTT-009) 733 Ridgewood Ave, Ottawa, ON K1V 6M8, Canada",Lead,45.3683423,-75.6878625
"Lead: (OTT-010) 1105 Carling Ave, Ottawa, ON K1Y 4G5, Canada",Lead,45.390157,-75.7252737
"Lead: (OTT-012) 1155 Lola St unit 7, Ottawa, Ontario K1K 2C5, Canada",Lead,45.4229,-75.65029
"Lead: (OTT-800) Main St, Ottawa, ON, Canada",Lead,45.4075435,-75.677091
"Lead: (OTT-999) 1081 Carling Ave, Ottawa, ON K1Y 1V3, Canada",Lead,45.3908459,-75.7236619
"Lead: (OTT-999) 405 St. Laurent Blvd, Ottawa, ON K1K 2Z6, Canada",Lead,45.4479539,-75.6502146
"Lead: (PHI-001) 101 S Christopher Columbus Blvd, Philadelphia, PA 19106, USA",Lead,39.9488015,-75.1399919
"Lead: (PHI-002) 2290 W Oregon Ave, Philadelphia, PA 19145, USA",Lead,39.9170854,-75.1854542
"Lead: (PHI-004) 300 E Godfrey Ave, Philadelphia, PA 19120, USA",Lead,40.0424843,-75.1102053
"Lead: (PHI-005) 1320 Spring Garden St, Philadelphia, PA 19123, USA",Lead,39.9618015,-75.1601716
"Lead: (PHI-007) 701 Cathedral Road, Philadelphia, PA 19128, USA",Lead,40.0643185,-75.2367567
"Lead: (PHI-008) 313 Spring Garden Street, Philadelphia, PA 19123, USA",Lead,39.9610931,-75.1439191
"Lead: (PHI-009) 1441 North Front Street, Philadelphia, PA 19122, USA",Lead,39.972871,-75.134799
"Lead: (PHI-010) 2327 Bleigh Ave, Philadelphia, PA 19152, USA",Lead,40.0493211,-75.0566583
"Lead: (PHI-012) 2703 South 3rd Street, Philadelphia, PA 19148, USA",Lead,39.9128953,-75.1520747
"Lead: (PHI-013) 139 East Chelten Avenue, Philadelphia, PA 19144, USA",Lead,40.038248,-75.172692
"Lead: (PHI-015) 5899 Lancaster Ave, Philadelphia, PA 19131, USA",Lead,39.9820408,-75.2385382
"Lead: (PHI-016) 5414 Chester Avenue, Philadelphia, PA, USA",Lead,39.938656,-75.223596
"Lead: (PHI-017) 1643 West Thompson Street, Philadelphia, PA, USA",Lead,39.973953,-75.163633
"Lead: (PHI-018) 3781 Jasper Street, Philadelphia, PA, USA",Lead,40.0031316,-75.0980253
"Lead: (PHI-019) 5117 Market Street, Philadelphia, PA, USA",Lead,39.960078,-75.223436
"Lead: (PHI-021) 1223 Washington Avenue, Philadelphia, PA 19147, USA",Lead,39.9379149,-75.164057
"Lead: (PHI-022) 5601 Chestnut St, Philadelphia, PA 19139, USA",Lead,39.9607353,-75.2342326
"Lead: (PHI-023) 2929 N Broad St, Philadelphia, PA 19132, USA",Lead,39.9987889,-75.1520782
"Lead: (PHI-024) 1020 Cherry Street, Philadelphia, PA 19107, USA",Lead,39.9544227,-75.1570462
"Lead: (PHI-025) 1023 Vine St, Philadelphia, PA 19107, USA",Lead,39.957643,-75.156697
"Lead: (PHI-026) 5812 Woodland Ave, Philadelphia, PA 19143, USA",Lead,39.9314896,-75.2259182
"Lead: (PHI-027) 2425 W York St, Philadelphia, PA 19132, USA",Lead,39.9918185,-75.1726805
"Lead: (PHI-028) 300 North York Avenue, Philadelphia, PA 19106, USA",Lead,39.9562693,-75.1461814
"Lead: (PHI-029) 3952 Lancaster Ave, Philadelphia, PA 19104, USA",Lead,39.9627049,-75.2020015
"Lead: (PHI-030) 700 East Hunting Park Avenue, Philadelphia, PA 19124, USA",Lead,40.0118593,-75.1125779
"Lead: (PHI-031) 1140 Germantown Avenue, Philadelphia, PA 19123, USA",Lead,39.9692724,-75.1409021
"Lead: (PHI-032) 10 Reed Street, Philadelphia, PA, USA",Lead,39.9297201,-75.1451962
"Lead: (PHI-033) 38 Jackson St, Philadelphia, PA 19148, USA",Lead,39.9199191,-75.1474235
"Lead: (PHI-036) 3500 Aramingo Ave, Philadelphia, PA 19134, USA",Lead,39.9929659,-75.0991667
"Lead: (PHI-038) 5101 Wissinoming Street, Philadelphia, PA, USA",Lead,40.0250158,-75.0304411
"Lead: (PHI-039) 7821 Bartram Ave, Philadelphia, PA 19153, USA",Lead,39.8961723,-75.2344927
"Lead: (PHI-041) 427-35 Master St, Philadelphia, PA 19122, USA",Lead,39.972903,-75.1437009
"Lead: (PHI-042) 8556 Bustleton Ave, Philadelphia, PA 19152, USA",Lead,40.0731803,-75.0485654
"Lead: (PHI-043) 5400 Eadom St, Philadelphia, PA 19137, USA",Lead,40.0112407,-75.0656776
"Lead: (PHI-044) 6432 Castor Avenue, Philadelphia, PA 19149, USA",Lead,40.041018,-75.07713
"Lead: (PHI-047) 2549 Orthodox St, Philadelphia, PA 19137, USA",Lead,40.0014404,-75.0766054
"Lead: (PHX-001) 830 W Broadway Rd, Tempe, AZ 85282, USA",Lead,33.4078024,-111.9517248
"Lead: (PHX-002) 1418 E Washington St, Phoenix, AZ 85034, USA",Lead,33.4485134,-112.0512121
"Lead: (PHX-003) 1858 E Apache Blvd, Tempe, AZ 85281, USA",Lead,33.4151716,-111.9058117
"Lead: (PHX-004) 2115 S McClintock Dr, Tempe, AZ 85282, USA",Lead,33.4048666,-111.9087927
"Lead: (PHX-009) 9841 N Black Canyon Hwy, Phoenix, AZ 85021, USA",Lead,33.5764436,-112.116329
"Lead: (PHX-012) 1012 S Gilbert Rd, Gilbert, AZ 85296, USA",Lead,33.3286078,-111.7958411
"Lead: (PHX-013) 1422 W Warner Rd, Gilbert, AZ 85233, USA",Lead,33.3359225,-111.8212263
"Lead: (PHX-014) 2808 North 27th Avenue, Phoenix, AZ 85009, USA",Lead,33.4781907,-112.1173577
"Lead: (PHX-015) 600 E Baseline Rd, Tempe, AZ 85283, USA",Lead,33.3787651,-111.9322568
"Lead: (PHX-016) 2511 E Jefferson St, Phoenix, AZ 85034, USA",Lead,33.4470321,-112.0274195
"Lead: (PHX-017) 85 E Broadway Rd, Tempe, AZ 85282, USA",Lead,33.4067409,-111.938941
"Lead: (PHX-019) 1320 E Broadway Rd, Mesa, AZ, USA",Lead,33.4082336,-111.8022575
"Lead: (PHX-020) 336 N Stapley Dr, Mesa, AZ, USA",Lead,33.4215797,-111.8057111
"Lead: (PHX-021) 335 N Gilbert Rd, Mesa, AZ, USA",Lead,33.421765,-111.7878063
"Lead: (PHX-022) 6625 E Southern Ave, Mesa, AZ 85206, USA",Lead,33.3933018,-111.6887573
"Lead: (PHX-800) 1537 West Buckeye Road, Phoenix, AZ, USA",Lead,33.4364942,-112.0930982
"Lead: (PHX-801) 165 East Southern Avenue, Phoenix, AZ 85040, USA",Lead,33.3920172,-112.07025
"Lead: (POR-001) 321 SW 2nd Ave, Portland, OR 97204, USA",Lead,45.5204018,-122.6734936
"Lead: (POR-002) 2045 Northwest Pettygrove Street, Portland, OR 97209, USA",Lead,45.533,-122.693857
"Lead: (POR-004) 1037 SW Salmon St, Portland, OR 97205, USA",Lead,45.518401,-122.683771
"Lead: (POR-005) 432 SW Hall St, Portland, OR 97201, USA",Lead,45.5077819,-122.6730049
"Lead: (POR-006) 2715 SE 8th Ave, Portland, OR 97202, USA",Lead,45.5034337,-122.658365
"Lead: (POR-009) 434 SW 2nd Ave, Portland, OR 97204, USA",Lead,45.5196677,-122.6732833
"Lead: (POR-010) 938 Southwest 10th Avenue, Portland, OR, USA",Lead,45.5183841,-122.6826248
"Lead: (POR-011) 12 SW 4th Ave, Portland, OR 97204, USA",Lead,45.522893,-122.674051
"Lead: (POR-013) 1130 SW 17th Ave, Portland, OR 97205, USA",Lead,45.5184374,-122.6904738
"Lead: (POR-015) 432 SW 3rd Ave, Portland, OR 97204, USA",Lead,45.5196705,-122.6746095
"Lead: (POR-016) 320 SW 5th Ave, Portland, OR 97204, USA",Lead,45.521006,-122.6761713
"Lead: (POR-019) 8145 SE 82nd Ave, Portland, OR 97266, USA",Lead,45.4634019,-122.5801587
"Lead: (POR-022) 7339 NE Martin Luther King Jr Blvd, Portland, OR 97211, USA",Lead,45.5763337,-122.6617214
"Lead: (POR-025) 12975 SW Canyon Rd, Beaverton, OR 97005, USA",Lead,45.4884638,-122.8103981
"Lead: (POR-026) 1724 SE Grand Ave, Portland, OR 97214, USA",Lead,45.510391,-122.6604922
"Lead: (POR-027) 1400 NE Broadway, Portland, OR 97232, USA",Lead,45.5348649,-122.6512812
"Lead: (POR-028) 10135 SE Foster Rd, Portland, OR 97266, USA",Lead,45.4775824,-122.5590812
"Lead: (POR-029) 1133 SE 82nd Ave, Portland, OR, USA",Lead,45.5149744,-122.5790394
"Lead: (POR-030) 2240 NE Sandy Blvd, Portland, OR 97232, USA",Lead,45.5266974,-122.6426248
"Lead: (POR-031) 1718 North Lombard Street, Portland, OR 97217, USA",Lead,45.5768694,-122.6845918
"Lead: (POR-051) 8407 NE Fremont St, Portland, OR 97220, USA",Lead,45.5482933,-122.5764741
"Lead: (POR-052) 6010 Northeast Killingsworth Street, Portland, OR, USA",Lead,45.5624752,-122.6004605
"Lead: (POR-053) 9647 SE Harold St, Portland, OR 97266, USA",Lead,45.4828469,-122.5640205
"Lead: (POR-055) 11214 SE Division St, Portland, OR 97266, USA",Lead,45.5039549,-122.5476263
"Lead: (POR-056) 8715 SW Barbur Blvd, Portland, OR 97219, USA",Lead,45.4620697,-122.7045268
"Lead: (POR-057) 12990 SW Pacific Hwy, Tigard, OR 97223, USA",Lead,45.4259612,-122.7793086
"Lead: (POR-059) 8661 SW Canyon Dr, Portland, OR 97225, USA",Lead,45.4989853,-122.766091
"Lead: (POR-060) 2636 NW 26th Ave, Portland, OR 97210, USA",Lead,45.5407858,-122.70543
"Lead: (POR-061) 9585 SW Washington Square Rd, Tigard, OR 97223, USA",Lead,45.4503942,-122.7812079
"Lead: (POR-062) 1111 NW 21st Ave, Portland, OR 97210, USA",Lead,45.5307595,-122.6948589
"Lead: (POR-064) 4027 César E. Chávez Blvd, Portland, OR 97202, USA",Lead,45.4935759,-122.6230149
"Lead: (POR-065) 7143 SE 82nd Ave, Portland, OR 97266, USA",Lead,45.4711567,-122.5793657
"Lead: (POR-066) 2330 SE Harney St, Portland, OR 97202, USA",Lead,45.4618729,-122.6408243
"Lead: (POR-067) 5111 SE 26th Ave, Portland, OR 97202, USA",Lead,45.4859061,-122.6398448
"Lead: (POR-068) 3220 SE Milwaukie Ave, Portland, OR 97202, USA",Lead,45.5000327,-122.654075
"Lead: (POR-801) 11875 SW Pacific Hwy, Portland, OR 97223, USA",Lead,45.4344492,-122.7646046
"Lead: (POR-999) 8485 SW Canyon Rd, Portland, Oregon, USA",Lead,45.4986262,-122.764232
"Lead: (PVD-001) 176 Douglas Ave, Providence, RI 02908, USA",Lead,41.8368371,-71.4218756
"Lead: (RDU-001) John Brantley Blvd, Morrisville, NC 27560, USA",Lead,35.87139,-78.7941947
"Lead: (SAC-001) 1922 Del Paso Boulevard, Sacramento, CA, USA",Lead,38.608547,-121.453494
"Lead: (SAC-002) 3848 Martin Luther King Jr Blvd, Sacramento, CA 95817, USA",Lead,38.547014,-121.4649334
"Lead: (SAC-003) 631 16th St, Sacramento, CA 95814, USA",Lead,38.5815047,-121.4835317
"Lead: (SAC-007) 2540 Venture Oaks Way, Sacramento, CA 95833, USA",Lead,38.6112247,-121.5118074
"Lead: (SAC-050) 7042 Folsom Blvd, Sacramento, CA 95826, USA",Lead,38.5517986,-121.4208574
"Lead: (SAC-107) Hilton Garden Inn Sacramento/South Natomas, 2540 Venture Oaks Way, Sacramento, CA 95833, USA",Lead,38.6113102,-121.5118654
"Lead: (SAC-888) 816 12th St, Sacramento, CA 95814, USA",Lead,38.5811822,-121.4903654
"Lead: (SAN-001) 1792 National Avenue, San Diego, CA 92113, USA",Lead,32.7022603,-117.1467154
"Lead: (SAN-002) 925 South 26th Street, San Diego, California 92113, USA",Lead,32.6962561,-117.1380047
"Lead: (SAN-003) 3441 El Cajon Blvd, San Diego, CA, USA",Lead,32.7548445,-117.1194127
"Lead: (SAN-004) 302 South 32nd Street, San Diego, CA, USA",Lead,32.7030282,-117.1254927
"Lead: (SAN-005) 419 Parkway Plaza, El Cajon, CA 92020, USA",Lead,32.806275,-116.9671904
"Lead: (SAN-006) 7979 Ivanhoe Ave, La Jolla, CA 92037, USA",Lead,32.8484791,-117.2723115
"Lead: (SAN-007) 7161 Broadway, Lemon Grove, CA 91945, USA",Lead,32.7422095,-117.043684
"Lead: (SAN-800) 4575 La Jolla Village Dr, San Diego, CA 92122, USA",Lead,32.8724004,-117.2089342
"Lead: (SAN-801) 8110 Mira Mesa Boulevard, San Diego, CA, USA",Lead,32.9128737,-117.1486357
"Lead: (SAN-802) 9655 Via Excelencia, San Diego, CA 92126, USA",Lead,32.8979221,-117.1185439
"Lead: (SAN-888) 100 J St, San Diego, CA 92101, USA",Lead,32.7096678,-117.162721
"Lead: (SAN-999) 2303 Reo Dr, San Diego, CA 92139, USA",Lead,32.6766547,-117.065719
"Lead: (SAT-001) 11911 Crosswinds Way, San Antonio, TX 78233, USA",Lead,29.5477286,-98.3760005
"Lead: (SAT-002) 14730 Bulverde Rd, San Antonio, TX 78247, USA",Lead,29.5753092,-98.4180196
"Lead: (SAT-003) 6510 N New Braunfels Ave, San Antonio, TX 78209, USA",Lead,29.4907655,-98.4588784
"Lead: (SAT-004) 1346 Fair Avenue, San Antonio, TX 78223, USA",Lead,29.3838088,-98.4570955
"Lead: (SAT-006) 2015 Northeast Interstate 410 Loop, San Antonio, TX 78217, USA",Lead,29.518696,-98.4310117
"Lead: (SAT-007) 508 Chestnut St, San Antonio, TX 78202, USA",Lead,29.4266826,-98.4790443
"Lead: (SAT-008) 9503 Middlex Drive, San Antonio, TX 78217, USA",Lead,29.527409,-98.459452
"Lead: (SAT-009) 8415 McCullough Ave, San Antonio, TX 78216, USA",Lead,29.5162467,-98.4921174
"Lead: (SAT-010) 829 Pat Booker Road, Universal City, TX 78148, USA",Lead,29.5487459,-98.2932893
"Lead: (SAT-011) 1315 Austin Highway, San Antonio, TX 78209, USA",Lead,29.4904709,-98.4416806
"Lead: (SAT-012) 7902 Mainland Drive, San Antonio, TX 78250, USA",Lead,29.5105623,-98.6382746
"Lead: (SAT-016) 5502 Evers Rd, San Antonio, TX 78238, USA",Lead,29.4872203,-98.5961746
"Lead: (SAT-018) 15314 San Pedro Avenue, San Antonio, TX 78232, USA",Lead,29.5804286,-98.4750868
"Lead: (SAT-021) 571 Eleanor Ave, San Antonio, TX 78209, USA",Lead,29.4552048,-98.4613987
"Lead: (SAT-024) 929 Austin Hwy, San Antonio, TX 78209, USA",Lead,29.4848607,-98.454068
"Lead: (SAT-025) 4407 S PanAm Expy, San Antonio, TX 78225, USA",Lead,29.3816373,-98.5133201
"Lead: (SAT-026) 715 West Ave, San Antonio, TX 78201, USA",Lead,29.4693776,-98.5262848
"Lead: (SAT-027) 1402 Cupples Rd, San Antonio, TX 78226, USA",Lead,29.3941491,-98.5493023
"Lead: (SAT-028) 2318 Northwest Military Highway, San Antonio, TX 78231, USA",Lead,29.5424019,-98.5287833
"Lead: (SAT-030) 3678 Culebra Rd, San Antonio, TX 78228, USA",Lead,29.4495629,-98.57566
"Lead: (SAT-800) 827 Elmwood Dr, San Antonio, TX 78212, USA",Lead,29.469059,-98.507262
"Lead: (SAT-801) 113 La Manda Blvd, San Antonio, TX 78212, USA",Lead,29.4874999,-98.5000979
"Lead: (VAN-012) 1000 Burrard St, Vancouver, BC V6Z 2R9, Canada",Lead,49.2805241,-123.1260114
"Lead: (VAN-999) 5400 Airport Rd S, Richmond, BC V7B 1M7, Canada",Lead,49.1795348,-123.1555225
"Lead: (WAS-001) 63 Patterson St NE, Washington, DC 20002, USA",Lead,38.9060599,-77.0070455
"Lead: (WAS-003) 1415 N Danville St, Arlington, VA 22201, USA",Lead,38.889195,-77.090344
"Lead: (WAS-003) 2636 Wilson Blvd, Arlington, VA 22201, USA",Lead,38.889499,-77.090391
"Lead: (WAS-007) 1366 Irving St NW, Washington, DC 20010, USA",Lead,38.9284531,-77.0319377
"Lead: (WAS-009) 7155 Wisconsin Ave, Bethesda, MD 20814, USA",Lead,38.9811192,-77.0921049
"Lead: (WAS-016) 631 P St NW, Washington, DC 20001, USA",Lead,38.909913,-77.021192
"Lead: (WAS-017) 31 K St NE, Washington, DC 20002, USA",Lead,38.9021077,-77.0073193
"Lead: (WAS-018) 8600 Georgia Ave, Silver Spring, MD 20910, USA",Lead,38.9960257,-77.0287621
"Lead: (WAS-019) 2001 16th St NW, Washington, DC 20009, USA",Lead,38.9179698,-77.0361617
"Lead: (WAS-022) 2305 Wilson Blvd, Arlington, VA 22201, USA",Lead,38.8911461,-77.0865972
"Lead: (WAS-023) 1900 L St NW, Washington, DC 20036, USA",Lead,38.9035777,-77.0437129
"Lead: (WAS-025) 700 M St SE, Washington, DC 20003, USA",Lead,38.8766684,-76.9959902
"Lead: (WAS-026) 5756 Georgia Ave NW, Washington, DC 20011, USA",Lead,38.9595601,-77.0284922
"Lead: (WAS-027) 36 L St SW, Washington, DC 20024, USA",Lead,38.8775383,-77.0097474
"Lead: (WAS-029) 12208 Rockville Pike, Rockville, MD 20852, USA",Lead,39.0551954,-77.1191291
"Lead: (WAS-030) 4601 41st St NW, Washington, DC 20016, USA",Lead,38.9500549,-77.0801087
"Lead: (WAS-031) 4820 31st St S, Arlington, VA 22206, USA",Lead,38.835871,-77.09796
"Lead: (WAS-032) 423 Clifford Avenue, Alexandria, VA 22305, USA",Lead,38.832115,-77.051894
"Lead: (WAS-034) 6950 Carroll Avenue, Takoma Park, MD 20912, USA",Lead,38.9749293,-77.0133318
"Lead: (WAS-036) 723 8th St SE, Washington, DC 20003, USA",Lead,38.8804673,-76.9951997
"Lead: (WAS-037) 949 Bonifant Street, Silver Spring, MD, USA",Lead,38.9938979,-77.0257514
"Lead: (WAS-038) 1200 Brentwood Rd NE, Washington, DC 20018, USA",Lead,38.9210568,-76.9897487
"Lead: (WAS-800) 2525 Crystal Drive, Arlington, VA 22202, USA",Lead,38.850088,-77.0504731
"Lead: (WAS-801) 4701 Sangamore Rd, Bethesda, MD 20816, USA",Lead,38.9497692,-77.1199016
"Lead: (WAS-805) 1220 N Pierce St, Arlington, VA 22209, USA",Lead,38.888391,-77.076701
"Lead: (WAS-806) 2550 S Clark St, Arlington, VA 22202, USA",Lead,38.851214,-77.0519346
Contact: Crate Brewery,Contact,51.5428546,-0.0228668
Engaged: (MIA-033) REEF - 200 Ne 62Nd St,Engaged,25.832699,-80.1916959
"Engaged: 2800 Annapolis Rd, Baltimore, MD 21230",Engaged,39.2558995,-76.6388851
"Engaged: Oya Kitchens - Birley Fields, Manchester, 32",Engaged,,
Engaged: The Black Horse,Engaged,51.5166747,-0.1331198
Enrolled: Milport,Enrolled,25.7994319,-80.1871142
Matched: (ABU-009) Raha Mall Khalifa City,Matched,25.2048493,55.2707828
Activated: (LDN-297) Accor - Accor Southwark,Activated,51.5057681,-0.0950998
"Activated: (TOR-028) 1286 Dupont Street, Toronto",Activated,43.6679542,-79.443611
Activated: (MIA-003) REEF - 385 NE 79th St Miami,Activated,25.8480368,-80.1893005
Lead: Accor - H2177 - LONDON DOCKLANDS CANARY WHARF,Lead,51.5070227,-0.0070117
Lead: Accor - H9721 - LONDON STRATFORD,Lead,51.5465995,-0.0077651
Lead: Accor - H5694 - BERLIN CITY SUD,Lead,52.4608182,13.4408021
Lead: Gravity - Gravity Manchester,Lead,,
"Lead: (ATL-002) 567 Courtland Street Northeast, Atlanta, GA, USA",Lead,33.7699641,-84.3837991
"Lead: (ATL-063) 675 Mansell Rd, Roswell, GA 30076, USA",Lead,34.0415549,-84.3444276
"Lead: (AUS-017) 9422 Anderson Mill Rd, Austin, TX 78729, USA",Lead,30.4498585,-97.7879641
"Lead: (AUS-999) 1200 E Palm Valley Blvd, Round Rock, TX, USA",Lead,30.5187364,-97.6674892
"Lead: (BAL-025) 2031 Fountain Street, Baltimore, MD 21231, USA",Lead,39.2842833,-76.5875993
"Lead: (BOS-801) 42 Riverdale Ave, Newton, MA 02458, USA",Lead,42.3651156,-71.1941908
"Lead: (CGY-018) 12127 44 St SE, Calgary, AB T2Z 4H3, Canada",Lead,50.9424366,-113.9725179
"Lead: (CHI-025) 762 W Jackson Blvd, Chicago, IL 60661, USA",Lead,41.8783234,-87.6464745
"Lead: (DAL-005) 601 North Hawkins Street, Dallas, TX, USA",Lead,32.7866697,-96.7908495
"Lead: (DAL-035) 660 Walnut Ridge Dr, Irving, TX 75038, USA",Lead,32.8844614,-96.9553459
"Lead: (DAL-055) 1144 Quaker St, Dallas, TX 75207, USA",Lead,32.8007183,-96.8446478
"Lead: (DEN-015) 1590 Elmira St, Aurora, CO 80010, USA",Lead,39.7418004,-104.872613
"Lead: (DET-011) 10801 M-102, Detroit, MI 48221, USA",Lead,42.4451117,-83.1707203
"Lead: (DET-043) 10500 Eight Mile Rd, Ferndale, MI 48220, USA",Lead,42.4463773,-83.1666378
"Lead: (HOU-017) 4615 Sherman St, Houston, TX 77011, USA",Lead,29.7464873,-95.327689
"Lead: (HOU-041) 1301 Leeland Street, Houston, TX 77002, USA",Lead,29.7509685,-95.3655563
Lead: (Kimco) KIMCO - 280 Metro Center,Lead,37.6779135,-122.4667686
Lead: (Kimco) KIMCO - Baybrook Gateway,Lead,29.5404065,-95.1376506
Lead: Prince Regent Hotel,Lead,51.5139985,0.0321645
Engaged: (MIA-058) REEF - 2828 E. Sunrise Blvd,Engaged,26.1377431,-80.1072845
Engaged: ARK - ARK Co-Living Canary Wharf,Engaged,51.4977203,-0.0147015
Engaged: Buzz Bingo - Bexleyheath Buzz Bingo,Engaged,51.4561618,0.1502877
"Enrolled: (MIA-108) 5966 S. Dixie, Miami",Enrolled,25.7026359,-80.2907965
Enrolled: (TOR-044) 4894 Dundas Street West,Enrolled,43.6493133,-79.5285974
"Matched: (BCN-001-01) Gracia, Barcelona",Matched,41.4103224,2.1615825
Activated: (LDN-205) Boxpark - BoxPark Wembley,Activated,51.5605176,-0.2803929
Activated: (DXB-005) Dubai Marina Delphine Tower,Activated,25.1828841,55.2831173
"Activated: (TOR-010) 289-291 College St., Toronto",Activated,51.5235509,-0.1326528
Lead: Accor - H3141 - LONDON WEMBLEY,Lead,51.5548584,-0.2775249
Lead: Accor - HB5V2 - LONDON SEVEN KINGS,Lead,51.5642432,0.0961285
Lead: Accor - H8601 - BERLIN HAUPTBAHNHOF,Lead,52.5270926,13.3704294
Lead: Workspace - Workspace Brixton,Lead,51.4880617,-0.1119618
"Lead: (ATL-041) 699 Ponce De Leon Ave NE, Atlanta, GA 30308, USA",Lead,33.7729948,-84.3641302
"Lead: (AUS-002) 9433 Parkfield Dr, Austin, TX, 78758",Lead,30.3684414,-97.705533
"Lead: (AUS-026) 12538 Research Blvd, Austin, TX 78759, United States",Lead,30.4291067,-97.7614296
"Lead: (BAL-008) 1511 Joh Ave, Halethorpe, MD 21227, USA",Lead,39.2602423,-76.6663758
"Lead: (BAL-030) 6901 York Rd, Baltimore, MD 21212, USA",Lead,39.3786341,-76.6081005
"Lead: (CGY-002) 414 Centre Street South, Calgary, AB T2G 4Z6, Canada",Lead,51.04898,-114.06261
"Lead: (CHI-008) 3101 W Lake St, Chicago, IL 60612, USA",Lead,41.8840263,-87.7039364
"Lead: (CHI-034) 48 E 63rd St, Chicago, IL 60637, USA",Lead,41.780259,-87.622462
"Lead: (DAL-012) 1915 N Central Expy, Plano, TX 75075, USA",Lead,33.027852,-96.7115229
"Lead: (DAL-041) 301 Silverglen Dr, Plano, TX 75075, USA",Lead,33.0014934,-96.7631872
"Lead: (DAL-060) 12225 Greenville Ave, Dallas, TX 75243, USA",Lead,32.9147365,-96.7459777
"Lead: (DEN-023) 2055 California Street, Denver, CO 80205, USA",Lead,39.7498291,-104.9866566
"Lead: (DET-016) 20705 Southfield Rd, Southfield, MI 48075, USA",Lead,42.4447034,-83.2205586
"Lead: (EDM-005) 14206 Stony Plain Rd, Edmonton, AB T5N 3R3, Canada",Lead,53.5432014,-113.5661013
"Lead: (HOU-022) 900 Leeland St, Houston, TX 77002, USA",Lead,29.7525201,-95.3690109
"Lead: (HOU-048) 19660 Restaurant Row, Houston, TX 77084, USA",Lead,29.7876806,-95.7142702
Lead: (Kimco) KIMCO - Adams Plaza,Lead,,
Contact: Hurricane Room Kings Cross,Contact,51.5304974,-0.1207997
Lead: The Wellington Hotel & Pub,Lead,52.4719631,-1.899273
"Engaged: Oya Kitchens - Curve Club, East London - 190",Engaged,51.5285968,-0.090366
Engaged: (MIA-001) 201 SW 2nd Ave,Engaged,25.7722553,-80.1973683
Engaged: Buzz Bingo - Stratford Buzz Bingo,Engaged,51.5394759,-0.0009178
"Enrolled: (TOR-025) 1450 Don Mills Rd., Toronto",Enrolled,43.7525469,-79.348053
Matched: (MON-009) 250 Rue Gary-Carter,Matched,45.5329836,-73.6239596
Matched: Red Sea Barsha - Kitchen 3A,Matched,25.0673855,55.2193314
"Activated: (MIA-007) 12884 Sw 87Th Ave , Miami",Activated,25.6510021,-80.334705
"Activated: (DXB-027) Ikcon FC - 01, Food Court. Uptown Mirdif Mall Dubai",Activated,25.2154225,55.4083614
Activated: (DXB-054) Spring Souq,Activated,25.0650625,55.1929375
Lead: Accor - H6900 - GLOUCESTER,Lead,51.864834,-2.2110036
Lead: Accor - HB8F6 - LONDON BROMLEY CENTRE,Lead,51.401683,0.0180389
Lead: Accor - H6301 - MADRID ALCOBENDAS,Lead,40.5137351,-3.6763161
Lead: Workspace - Workspace Bethnal Green,Lead,51.5252168,-0.057353
"Lead: (ATL-044) 175 Peachtree St SW, Atlanta, GA 30303, USA",Lead,33.7498656,-84.393747
"Lead: (AUS-006) 510 W Oltorf St, Austin, TX 78704, USA",Lead,30.2418858,-97.7584416
"Lead: (AUS-033) 6121 N Interstate Hwy 35, Austin, TX 78752, USA",Lead,30.3004928,-97.7158995
"Lead: (BAL-011) 1100 Wicomico St, Baltimore, MD 21230, USA",Lead,39.279724,-76.6296286
"Lead: (BAL-036) 2910 Evergreen Ave, Baltimore, MD 21214, USA",Lead,39.3539019,-76.5608716
"Lead: (CGY-005) 330 11 Ave SW, Calgary, AB T2R 0C5, Canada",Lead,51.0427625,-114.0701005
"Lead: (CHI-012) 4229 N Pulaski Rd, Chicago, IL 60641, USA",Lead,41.9582039,-87.7274346
"Lead: (CHI-038) 8001 S King Dr, Chicago, IL 60619, USA",Lead,41.7490143,-87.614387
"Lead: (DAL-019) 7544 E Grand Ave, Dallas, TX 75214, USA",Lead,32.8108747,-96.7290892
"Lead: (DAL-047) 14902 Preston Road, Dallas, TX 75254, USA",Lead,32.9515487,-96.8025397
"Lead: (DAL-065) 1326 Botham Jean Boulevard, Dallas, TX 75215, USA",Lead,32.768059,-96.7957144
"Lead: (DEN-026) 1268 Cherokee St, Denver, CO 80204, USA",Lead,39.7365897,-104.9913072
"Lead: (DET-019) 1551 W Lafayette Blvd, Detroit, MI 48216, USA",Lead,42.3248037,-83.0631848
"Lead: (EDM-014) 9635 41 Ave NW, Edmonton, AB T6E 5X7, Canada",Lead,53.4759362,-113.4783019
"Lead: (HOU-025) 5264 W 34th St, Houston, TX 77092, USA",Lead,29.8204154,-95.4663134
"Lead: (HOU-055) 511 W Little York Rd, Houston, TX 77091, USA",Lead,29.8693668,-95.40868
Lead: (Kimco) KIMCO - Anaheim Plaza,Lead,,
Engaged: Gather&Gather - Oxford Brookes University,Engaged,51.7542224,-1.2287115
"Engaged: Oya Kitchens - Ready Kitchen, Canary Wharf - 320",Engaged,51.5018174,0.0242011
"Engaged: Oya Kitchens - Craft Beer Co Hammersmith, 319",Engaged,51.5139184,-0.3030284
Engaged: Buzz Bingo - Birmingham Great PK Buzz Bingo,Engaged,52.3984148,-2.006312
"Enrolled: (DXB-024) Moonshot Foodservices LLC - 4th Street Behind Gold & Diamond Park -Al Quoz Industrial Area 3, Dubai",Enrolled,25.1257381,55.2089288
"Matched: (TOR-003) 412 Church St., Toronto",Matched,43.66083,-79.37922
Matched: Social Hotel Barsha Heights - Dubai,Matched,25.0973739,55.1737727
"Activated: (MIA-028) 625 Se 1St Ave, Miami",Activated,25.7662879,-80.1918263
Activated: (MAN-046) Gravity - Gravity Warrington,Activated,53.3881558,-2.5915423
Churned: (LDN-145) Willesden,Churned,51.5289748,-0.2423083
Lead: Accor - H7332 - LIVERPOOL CITY CENTRE,Lead,53.4048483,-2.9792337
Lead: Accor - HB8Q3 - IBIS STYLES BOURNEMOUTH,Lead,50.7209551,-1.8633372
Lead: Accor - H7066 - MADRID VALLECAS,Lead,40.3723524,-3.6407098
Lead: Workspace - Workspace Dalston,Lead,,
"Lead: (ATL-046) 3300 Kingsboro Rd NE, Atlanta, GA, USA",Lead,33.8488281,-84.3604417
"Lead: (AUS-008) 2623 Jones Rd, Austin, TX 78745, USA",Lead,30.2250146,-97.8033607
"Lead: (AUS-036) 9515 N Lamar Blvd, Austin, TX 78753, USA",Lead,30.3636654,-97.6952584
"Lead: (BAL-016) 1100 W 41st St, Baltimore, MD 21211, USA",Lead,39.3380839,-76.6364273
"Lead: (BAL-040) 1620 St Agnes Ln, Baltimore, MD 21207, USA",Lead,39.3033408,-76.7118711
"Lead: (CGY-007) 1102 13 St SW, Calgary, AB T3C 3S8, Canada",Lead,51.04304,-114.09358
"Lead: (CHI-014) 2750 N Karlov Ave, Chicago, IL 60639, USA",Lead,41.9311207,-87.7295134
"Lead: (CHI-043) 2106 S Kedzie Ave, Chicago, IL 60623, USA",Lead,41.8532636,-87.7056767
"Lead: (DAL-022) 3304 Coit Rd, Plano, TX 75023, USA",Lead,33.0423687,-96.7693183
"Lead: (DAL-049) 9220 Skillman Street, Dallas, TX 75243, USA",Lead,32.9022012,-96.7143127
"Lead: (DAL-067) 6102 Skillman St, Dallas, TX 75231, U.S.",Lead,32.8627398,-96.7485343
"Lead: (DET-003) 461 Gratiot Ave, Detroit, MI 48226, USA",Lead,42.336945,-83.04426
"Lead: (DET-021) 401 West Grand River Avenue, Detroit, MI 48226, USA",Lead,42.3336619,-83.0525488
"Lead: (HOU-006) 401 W Dallas St, Houston, TX 77002, USA",Lead,29.7583817,-95.3735082
"Lead: (HOU-028) 10025 S Main St, Houston, TX 77025, USA",Lead,29.675804,-95.4262548
"Lead: (HOU-805) 8245 North Freeway, Houston, TX 77037, USA",Lead,29.8785215,-95.4133864
Lead: (Kimco) KIMCO - Arbor Lakes Retail Center,Lead,45.095788,-93.441673
Engaged: Gather&Gather - Gloucestershire University - Oxstalls Campus,Engaged,51.8719189,-2.2236714
"Engaged: Oya Kitchens - Cargo, Manchester",Engaged,53.4847678,-2.2412441
"Engaged: Oya Kitchens - Battersea Kitchen 3, 300",Engaged,51.4746573,-0.1457195
Engaged: Buzz Bingo - Bromborough Buzz Bingo,Engaged,53.3409582,-2.9758076
Enrolled: (MIA-010) REEF - 4480 NW 2nd Ave,Enrolled,25.8166759,-80.1999446
Matched: (DXB-056) Kitchen 2 Avenue Mall Business Bay,Matched,25.1910054,55.2657476
Activated: (DXB-044) Alsufouh 1 Ripe market police academ,Activated,25.1242748,55.197451
Activated: (MIA-049) 2919 Biscayne Blvd Miami,Activated,25.8046631,-80.188929
Activated: (DXB-039) JUMEIRAH VILLAGE CIRCLE,Activated,25.0601975,55.2093505
Churned: (LDN-276) Boxpark - BoxPark Croydon,Churned,51.375002,-0.093645
Lead: Accor - H8117 - BIRMINGHAM CITY CENTRE,Lead,52.4768169,-1.8917518
Lead: Accor - H1573 - BERLIN  CITY NORD,Lead,52.5747347,13.3581573
Lead: Accor - H8052 - MADRID PRADO,Lead,40.414827,-3.6989926
Lead: Workspace - Workspace Vauxhall,Lead,51.4856716,-0.1181493
"Lead: (ATL-051) 1575 Old Alabama Road, Roswell, GA 30076, USA",Lead,34.0214336,-84.315292
"Lead: (AUS-012) 2723 South Interstate 35 Frontage Road, Austin, TX 78741, USA",Lead,30.2282465,-97.7435163
"Lead: (AUS-038) 5618 Manor Rd, Austin, TX, USA",Lead,30.3045043,-97.6817415
"Lead: (BAL-018) 6630 Tramore Road, Baltimore, MD 21214, USA",Lead,39.3670885,-76.5654835
"Lead: (BOS-002) 21 A St, Boston, MA 02127, USA",Lead,42.3425996,-71.0547603
"Lead: (CGY-012) 1616 14 Ave NW, Calgary, AB T2N 1M5, Canada",Lead,51.0658515,-114.0999504
"Lead: (CHI-015) 1434 W Fillmore St, Chicago, IL 60607, USA",Lead,41.8687695,-87.6629441
"Lead: (CHI-046) 560 W Lexington St, Chicago, IL 60607, USA",Lead,41.87304,-87.641889
"Lead: (DAL-026) 3400 E Hebron Pkwy, Plano, TX 75093, USA",Lead,33.0255058,-96.8425957
"Lead: (DAL-050) 811 Dragon St, Dallas, TX 75207, USA",Lead,32.784776,-96.8151031
"Lead: (DAL-803) 1813 S Akard St, Dallas, TX 75201, USA",Lead,32.7672163,-96.7898507
"Lead: (DET-006) 5555 Conner St, Detroit, MI 48213, USA",Lead,42.3903168,-82.9819922
"Lead: (DET-024) 11285 Hall Road, Utica, MI 48317, USA",Lead,42.6265155,-83.0182116
"Lead: (HOU-011) 3055 Sage Rd, Houston, TX 77056, USA",Lead,29.73514,-95.466155
"Lead: (HOU-034) 1727 Westheimer Rd, Houston, TX 77098, USA",Lead,29.7425149,-95.4032404
"Lead: (JAX-003) 5011 Gate Pkwy, Jacksonville, FL 32256, USA",Lead,30.2460284,-81.5331472
Lead: (Kimco) KIMCO - Argyle Village,Lead,30.1939641,-81.7427954
Engaged: Accor - H9475 - LONDON EALING,Engaged,51.5128793,-0.2963451
"Engaged: Oya Kitchens - Next Door Records, Shepherds Bush - 141",Engaged,51.5063731,-0.2315609
"Engaged: Oya Kitchens - Chef Space, Clapham Park Road, 461",Engaged,51.4600681,-0.1352092
Engaged: Buzz Bingo - Liverpool Croxteth Buzz Bingo,Engaged,53.4560905,-2.9146379
Enrolled: (TOR-900) 900 Don Mills Rd,Enrolled,43.7267876,-79.3425056
"Matched: (DXB-053) Kitchen 1,Cluster Q JLT",Matched,25.0755183,55.1453413
Activated: (BIR-002) Birmingham (Miller Street),Activated,52.4927722,-1.8951824
"Activated: (MIA-107) The Sagamore, 1671 Collins Ave, Miami Beach",Activated,25.7916477,-80.1291191
"Activated: (DXB-038) SAFEER TOWER TWO, BUSINESS BAY",Activated,25.1771361,55.2710581
Churned: (MAD-003) Organic&Go,Churned,40.4268,-3.673594
Lead: Accor - H8614 - BIRMINGHAM CITY HAGLEY ROAD,Lead,52.4724412,-1.9513049
Lead: Accor - H2631 - BERLIN OST MARZAHN,Lead,52.5261924,13.530931
Lead: Accor - H8718 - MADRID CALLE 30,Lead,40.3961948,-3.6705545
Lead: Workspace - Workspace Whitechapel,Lead,51.5173536,-0.0672739
"Lead: (ATL-055) 431 Edgewood Ave SE, Atlanta, GA, USA",Lead,33.753993,-84.3734
"Lead: (AUS-013) 1805 Airport Blvd, Austin, TX 78702, USA",Lead,30.281533,-97.702829
"Lead: (AUS-039) 10501 N Interstate Hwy 35, Austin, TX 78753, USA",Lead,30.3689519,-97.6804024
